ID_RICHIESTA,RICHIESTA ANNO PROT,RICHIESTA DATA,PROCEDIMENTO,ESITO PRATICA,CHIUSURA PRATICA DATA,CODICE VIA,CIVICO,ESPONENTE CIVICO,LOCALIZZAZIONI LISTA,DESCRIZIONE_RICHIESTA,LOCALIZZAZIONE_RICHIESTA,ANNO,NOMI_FILE,indirizzo_pulito,lat,lon
43943,2008,2008-02-21,permesso di costruire,Rilasciata con prescrizioni,2008-09-15,36170.0,14.0,,VIA MARTIRI CROCE DEL BIACCO N.  14 INTERO EDIFICIO,"ampliamento di unità abitativa in edificio unifamiliare a piano seminterrato, terra e primo, in variante essenziale alla DIA 177807/07 (ampliamento inferiore al 20%)",VIA MARTIRI CROCE DEL BIACCO N.  14 INTERO EDIFICIO,2008.0,PDC settembre 2008.xls,"Via Martiri Croce Del Biacco 14, Bologna",44.4905261,11.4000564
45264,2008,2008-02-22,permesso di costruire,Rilasciata,2008-09-08,25050.0,1.0,,VIA DUCCIO GALIMBERTI N.  1,"demolizione di parte di edificio esistente e ricostruzione con ampliamento utilizzando la superficie della tribuna, modifiche interne ed estetiche.",VIA DUCCIO GALIMBERTI N.  1,2008.0,PDC settembre 2008.xls,"Via Duccio Galimberti 1, Bologna",44.4932422,11.3167337
48830,2008,2008-02-27,permesso di costruire,Rilasciata,2009-01-26,20080.0,46.0,,VIA QUIRINO DI MARZIO N.  46 48-50,"nuova costruzione di edifici ad uso abitativo previa demolizione di edificio esistente, con utilizzo di una-tantum e indice edificatorio",VIA QUIRINO DI MARZIO N.  46 48-50,2008.0,PDC gennaio 2009.xls,"Via Quirino Di Marzio 46 48-50, Bologna",44.5033155,11.294672
91552,2008,2008-04-21,permesso di costruire,Rilasciata,2008-12-18,45700.0,31.0,,VIA PIAVE N.  31,nuova costruzione in ampliamento e recupero di autorimessa con potenzialità edificatoria per realizzare due appartamenti in palazzina autonoma di piani due,VIA PIAVE N.  31,2008.0,PDC dicembre 2008.xls,"Via Piave 31, Bologna",44.5009405,11.3151771
104474,2008,2008-05-06,permesso di costruire,Rilasciata,2008-10-17,11950.0,16.0,,VIA ALFREDO CALZOLARI N.  16,Ampliamento di edificio esistente con l'utilizzo dell'incremento una tantum per la realizzazione di una unità ad uso abitativo. ,VIA ALFREDO CALZOLARI N.  16,2008.0,PDC ottobre 2008.xls,"Via Alfredo Calzolari 16, Bologna",44.5187844,11.354492
109344,2008,2008-05-09,permesso di costruire,Rilasciata con prescrizioni,2008-09-12,11120.0,,,VIA CADUTI DI AMOLA  ( Civico da definire ),per NC di Edificio ad uso misto U2-U9 su lotto libero e contestuale richiesta di cessione parziale dello standard P1,VIA CADUTI DI AMOLA  ( Civico da definire ),2008.0,PDC settembre 2008.xls,"Via Caduti Di Amola ( ), Bologna",44.514326,11.2809784
112232,2008,2008-05-13,permesso di costruire,Rilasciata,2008-10-24,32460.0,20.0,,VIA JACK LONDON N.  20,Nuova costruzione per ampliamento di unita' residenziale ed ristrutturazione edilizia di edificio accessorio trasformato in superficie utile uso abitazione,VIA JACK LONDON N.  20,2008.0,PDC ottobre 2008.xls,"Via Jack London 20, Bologna",44.5472439,11.3577806
127367,2008,2008-05-22,permesso di costruire,Rilasciata,2008-09-08,49330.0,1.0,,VIA RAVENNA N.  1 INTERNO 22 piano 9,vcd'o alla P.G. 34474/2008 per ulteriore ampliamento di S.U.residenziale sul lastrico solare con deroga dei confinanti,VIA RAVENNA N.  1 INTERNO 22 piano 9,2008.0,PDC settembre 2008.xls,"Via Ravenna 1, Bologna",44.4726017,11.3879674
129158,2008,2008-05-23,permesso di costruire,Rilasciata,2008-10-07,63100.0,376.0,,VIA FRANCESCO ZANARDI N.  376,Ampliamento di edificio uso produttivo con l'utilizzo dell'Una Tantum,VIA FRANCESCO ZANARDI N.  376,2008.0,PDC ottobre 2008.xls,"Via Francesco Zanardi 376, Bologna",44.5311063,11.3127378
142078,2008,2008-06-06,permesso di costruire,Rilasciata,2009-03-17,11850.0,4.0,,VIA DIONISIO CALVART N.  4,Permesso di costruire in VCO alla Dia 48228/08 per il frazionamento di una unità immobiliare ad uso laboratorio con contestuale utilizzo dell' incremento una tantum per l' ampliamento fuori sagoma della parte non classificata. ,VIA DIONISIO CALVART N.  4,2008.0,PDC marzo 2009.xls,"Via Dionisio Calvart 4, Bologna",44.5157169,11.3470676
160304,2008,2008-06-23,permesso di costruire,Rilasciata,2008-11-03,52900.0,6.0,,VIA RAFFAELLO SANZIO N.  6,N.C. di maneggio,VIA RAFFAELLO SANZIO N.  6,2008.0,PDC novembre 2008.xls,"Via Raffaello Sanzio 6, Bologna",44.4928548,11.2804874
161763,2008,2008-06-24,permesso di costruire,Rilasciata,2008-09-30,50900.0,6.0,,VIA ROMITA N.  6,"Sopraelevazione di locale autorimessa non classificata con contestuale trasformazione in SU e restituzione della pari superficie a parcheggio, accorpamento di unità abitative e opere interne ed esterne",VIA ROMITA N.  6,2008.0,PDC settembre 2008.xls,"Via Romita 6, Bologna",44.5245105,11.3698868
163761,2008,2008-06-25,permesso di costruire,Rilasciata,2008-10-17,14000.0,8.0,,VIA VINCENZO CASCIAROLO N.  8 INTERNO 1,Variante in c.o alla p.g. 87812/2008 per ampliamenti con ricorso all'indice edificatorio una tantum e frazionamento di unita' residenziale,VIA VINCENZO CASCIAROLO N.  8 INTERNO 1,2008.0,PDC ottobre 2008.xls,"Via Vincenzo Casciarolo 8, Bologna",44.5058671,11.3602782
168704,2008,2008-06-30,permesso di costruire,Rilasciata,2008-11-11,60900.0,3.0,,VIA ANGELO VENTUROLI N.  3,"recupero sottostetto e frazionamento di unità immobiliari, riguardanti intero edificio classificato a piano seminterrato, rialzato, primo e sottotetto ",VIA ANGELO VENTUROLI N.  3,2008.0,PDC novembre 2008.xls,"Via Angelo Venturoli 3, Bologna",44.4923845,11.3669218
169460,2008,2008-06-30,permesso di costruire,Rilasciata,2008-10-30,15730.0,3.0,,VIA DELLA CENTRALINISTA N.  3,per la realizzazione di una pensilina in acciaio e plexiglass per il ricovero dei motocicli,VIA DELLA CENTRALINISTA N.  3,2008.0,PDC ottobre 2008.xls,"Via Della Centralinista 3, Bologna",44.4992368,11.407999
170189,2008,2008-07-01,permesso di costruire,Rilasciata,2008-09-23,5800.0,91.0,,VIA BATTINDARNO N.  91,Realizzazione di totem in acciaio e vetro all'interno di area industriale,VIA BATTINDARNO N.  91,2008.0,PDC settembre 2008.xls,"Via Battindarno 91, Bologna",44.5039372,11.2997808
171522,2008,2008-07-02,permesso di costruire,Rilasciata,2008-10-24,2050.0,59.0,,VIA ANDREA DA FAENZA N.  59,Nuova costruzione di autorimessa su lotto autonomo con l'utilizzo dell'indice fondiario,VIA ANDREA DA FAENZA N.  59,2008.0,PDC ottobre 2008.xls,"Via Andrea Da Faenza 59, Bologna",44.5173329,11.3458151
171572,2008,2008-07-02,permesso di costruire,Decaduta,2010-12-14,30850.0,37.0,,VIA LARGA N.  37,realizzazione fuori sagoma di deposito materiali a piano terra di unità immobiliare ad uso commerciale - concessionaria auto ,VIA LARGA N.  37,2008.0,PDC novembre 2008.xls,"Via Larga 37, Bologna",44.5038164,11.3984931
176048,2008,2008-07-08,permesso di costruire,Rilasciata,2008-10-24,18150.0,8.0,,PIAZZA DELLA COSTITUZIONE N.  8,Variante in C.O. non essenziale al PdC PG 227041/2006 per lo spostamento di parte della cabina elettrica sul lotto dove sono ubicati i servizi della camera di commercio di Bologna.,PIAZZA DELLA COSTITUZIONE N.  8,2008.0,PDC ottobre 2008.xls,"Piazza Della Costituzione 8, Bologna",44.5112173,11.3620904
179814,2008,2008-07-11,permesso di costruire,Rilasciata con prescrizioni,2009-03-25,36250.0,8.0,,VIA MARZABOTTO N.  8,NC di edificio ad uso direzionali con sfruttamento dell'indice esistente a Variante essenziale alla DIA PG 175993/08,VIA MARZABOTTO N.  8,2008.0,PDC marzo 2009.xls,"Via Marzabotto 8, Bologna",44.5030111,11.3130452
185352,2008,2008-07-18,permesso di costruire,Rilasciata,2008-09-30,47800.0,42.0,,VIA DEL PRATELLO N.  42,ripristino tipologico di edifici esistenti con demolizione e ricostruzione e creazione di n°3 garage e di lastrico solare a servizio della unità immobiliare ad uso abitativo esistente in variante al PdC n° 284884/07,VIA DEL PRATELLO N.  42,2008.0,PDC settembre 2008.xls,"Via Del Pratello 42, Bologna",44.495453,11.332496
186246,2008,2008-07-21,permesso di costruire,Rilasciata,2008-11-17,52400.0,16.0,2,VIA AURELIO SAFFI N.  16 / 2,Nuova costruzione di volume (tettoia in policarbonato con chiusura su tutti i lati) con utilizzo di una tantum in unità immobiliare ad uso residenziale posta al piano  ammezzato ,VIA AURELIO SAFFI N.  16 / 2,2008.0,PDC novembre 2008.xls,"Via Aurelio Saffi 16 / 2, Bologna",44.4999626,11.3242577
187047,2008,2008-07-22,permesso di costruire,Rilasciata,2009-03-05,37550.0,17.0,2,VIA GIOV.BATTISTA MELLONI N.  17 / 2,per ampliamento di due unità immobiliari ad uso abitativo usufruendo dell'ampliamento una-tantum in edificio non classificato - rif. n° 219185/07 (diniegata),VIA GIOVANNI BATTISTA MELLONI N.  17,2008.0,PDC marzo 2009.xls,"Via Giovanni Battista Melloni 17, Bologna",44.4915273,11.3196259
187634,2008,2008-07-22,permesso di costruire,Rilasciata,2008-12-04,20500.0,198.0,,VIA S.DONATO N.  198,Richiesta di Permesso di Costruire per opere di adeguamento estese all'intero edificio classificato 1B.,VIA S.DONATO N.  198,2008.0,PDC dicembre 2008.xls,"Via S.Donato 198, Bologna",44.522375,11.4041131
210853,2008,2008-09-04,permesso di costruire,Rilasciata,2008-11-17,19550.0,,,VIA DE LA BIRRA  ( Civico da definire ),nuova costruzione di edificio residenziale mediante utilizzo di s.u.e.  (vedi scheda R6.2),VIA DE LA BIRRA  ( Civico da definire ),2008.0,PDC novembre 2008.xls,"Via De La Birra ( ), Bologna",44.5219504,11.2928926
216238,2008,2008-09-11,permesso di costruire,Rilasciata,2008-12-18,21350.0,150.0,,VIA EMILIA LEVANTE N.  150,"realizzazione di edificio residenziale a piano interrato, terra, primo, secondo e terzo, e demolizione con ricostruzione e cambio d'uso di edificio con destinazione attuale U6",VIA EMILIA LEVANTE N.  150,2008.0,PDC dicembre 2008.xls,"Via Emilia Levante 150, Bologna",44.4798323,11.3844752
221178,2008,2008-09-16,permesso di costruire,Rilasciata con prescrizioni,2012-11-28,28350.0,,,VIA DEL GOMITO  ( Civico da definire ),Permesso di costruire per la nuova realizzazione di un impianto di distribuzione carburanti con annessi autolavaggi,VIA DEL GOMITO  ( Civico da definire ),2008.0,PDC novembre 2012.xls,"Via Del Gomito ( ), Bologna",44.5342041,11.3682427
221877,2008,2008-09-17,permesso di costruire,Rilasciata,2009-02-05,61360.0,11.0,,VIA DEL VETRAIO N.  11,"ampliamento fuori sagoma con utilizzo di superficie una tantum e residuo capacità edificatoria  e cambio d'uso verso il commerciale (U6) e il laboratoriale (U10) di unità a piano interrato, terra, primo.",VIA DEL VETRAIO N.  11,2008.0,PDC febbraio 2009.xls,"Via Del Vetraio 11, Bologna",44.5050304,11.4212665
230740,2008,2008-09-26,permesso di costruire,Rilasciata con prescrizioni,2009-02-20,38650.0,,,VIA DEL MILLIARIO  ( Civico da definire ),Nuova costruzione di edificio ad uso residenziale (n. 7 u.i.),VIA DEL MILLIARIO  ( Civico da definire ),2008.0,PDC febbraio 2009.xls,"Via Del Milliario ( ), Bologna",44.5106512,11.2963965
232493,2008,2008-09-29,permesso di costruire,Rilasciata,2009-06-12,34200.0,9.0,,VIA S.MAMOLO N.  9,"recupero del complesso edilizio monumentale detto "" convento delle acque """,VIA S.MAMOLO N.  9,2008.0,PDC giugno 2009.xls,"Via S.Mamolo 9, Bologna",44.4860814,11.3391346
242172,2008,2008-10-09,permesso di costruire,Rilasciata,2009-04-21,7000.0,11.0,,VIA GIUSEPPE BENTIVOGLI N.  11,Variante in c.o.minore alla PG 253054/2007 modifica della sagoma planivolumetrica e opere di RE2 interne ed esterne,VIA GIUSEPPE BENTIVOGLI N.  11,2008.0,PDC aprile 2009.xls,"Via Giuseppe Bentivogli 11, Bologna",44.4930611,11.3649423
250808,2008,2008-10-20,permesso di costruire,Rilasciata con prescrizioni,2009-10-06,63100.0,28.0,,VIA FRANCESCO ZANARDI N.  28,Nuova costruzione di asilo aziendale di Poste Italiane all'interno dell'area del CMP  ,VIA FRANCESCO ZANARDI N.  28,2008.0,PDC ottobre 2009.xls,"Via Francesco Zanardi 28, Bologna",44.5089603,11.3290411
251817,2008,2008-10-21,permesso di costruire,Rilasciata con prescrizioni,2009-03-10,750.0,10.0,,VIA AGUCCHI N.  10,Ampliamento una tantum fuori sagoma per nuova costruzione in sopraelevazione con accorpamento parziale di unità immobiliare,VIA AGUCCHI N.  10,2008.0,PDC marzo 2009.xls,"Via Agucchi 10, Bologna",44.5096853,11.2970052
253925,2008,2008-10-23,permesso di costruire,Rilasciata con prescrizioni,2009-04-17,21350.0,137.0,,VIA EMILIA LEVANTE N.  137 piano 4°,"chiusura di loggia a piano quarto, parzialmente fuori sagoma, con utilizzo di superficie una tantum in unità immobiliare ad uso U5",VIA EMILIA LEVANTE N.  137 piano 4°,2008.0,PDC aprile 2009.xls,"Via Emilia Levante 137 °, Bologna",44.4790576,11.3853119
255373,2008,2008-10-24,permesso di costruire,Rilasciata,2009-12-11,29150.0,20.0,,VIA FRATELLI GRUPPI N.  20,Demolizione e ricostruzione con ampliamento di edificio per la realizzazione di fabbricato ad uso civile abitazione.,VIA FRATELLI GRUPPI N.  20,2008.0,PDC dicembre 2009.xls,"Via Fratelli Gruppi 20, Bologna",44.5197581,11.3415107
265332,2008,2008-11-05,permesso di costruire,Rilasciata con prescrizioni,2009-02-06,63100.0,41.0,,VIA FRANCESCO ZANARDI N.  41,VARIANTE IN CORSO D'OPERA AL PG 65285/07 PER INTERVENTI DI NUOVA COSTRUZIONE,VIA FRANCESCO ZANARDI N.  41,2008.0,PDC febbraio 2009.xls,"Via Francesco Zanardi 41, Bologna",44.5121919,11.3279272
261638,2008,2008-10-31,permesso di costruire,Rilasciata,2009-02-20,43580.0,10.0,,VIA ANDREA PALLADIO N.  10,nuova costruzione di motorimessa a servizio di abitazione p.t,VIA ANDREA PALLADIO N.  10,2008.0,PDC febbraio 2009.xls,"Via Andrea Palladio 10, Bologna",44.5177056,11.2722002
282083,2008,2008-11-26,permesso di costruire,Rilasciata,2009-03-17,42350.0,35.0,,VIALE ALFREDO ORIANI N.  35,permesso di costruire per variante in corso d'opera alla D.I.A. P.G. 183537/08 per la ricostruzione di n. 2 edifici uno dei quali con intervento di RE4 globale con REV (recupero volumi esistenti) e l’altro con intervento di NC (nuova costruzione) per ampliamento nei due lotti limitrofi posti in VIALE ALFREDO ORIANI N. 35 e N. 37/A .,VIALE ALFREDO ORIANI N.  35,2008.0,PDC marzo 2009.xls,"Viale Alfredo Oriani 35, Bologna",44.4838518,11.3585611
284200,2008,2008-11-27,permesso di costruire,Rilasciata,2009-03-27,54180.0,12.0,,VIA DEL SELCIATORE N.  12,AMPLIAMENTO DI FABBRICATO PRODUTTIVO IN ZONA P1 DESTINAZIONE D'USO U9 CON RESIDUO DI CAPACITA' EDIF. E UNA TANTUM.,VIA DEL SELCIATORE N.  12,2008.0,PDC marzo 2009.xls,"Via Del Selciatore 12, Bologna",44.5023919,11.4176788
288004,2008,2008-12-03,permesso di costruire,Rilasciata,2009-03-16,18180.0,21.0,,VIA CRACOVIA N.  21,ampliamento con utilizzo di superficie una tantum di unità immobiliare ad uso residenziale a piano nono,VIA CRACOVIA N.  21,2008.0,PDC marzo 2009.xls,"Via Cracovia 21, Bologna",44.4717477,11.3978051
291685,2008,2008-12-09,permesso di costruire,Rilasciata,2009-01-12,27930.0,1.0,,VIA STEFANO GOBATTI N.  1,P.di C.  per richiesta di recupero di cabina enel con creazione di unita' ad uso ufficio tramite rev e nc di ascensore a norma l.13/89 (RIPRESENTAZIONE),VIA STEFANO GOBATTI N.  1,2008.0,PDC gennaio 2009.xls,"Via Stefano Gobatti 1, Bologna",44.4747281,11.3694024
293296,2008,2008-12-10,permesso di costruire,Rilasciata,2011-06-27,11130.0,,,VIA CADUTI DI CASTELDEBOLE  ( Civico da definire ),Nuova costruzione di n. 4 edifici ad uso produttivo,VIA CADUTI DI CASTELDEBOLE  ( Civico da definire ),2008.0,PDC  giugno 2011.xls,"Via Caduti Di Casteldebole ( ), Bologna",44.50033,11.2775589
300126,2008,2008-12-18,permesso di costruire,Rilasciata,2009-05-14,54320.0,7.0,,VIA SERAGNOLI N.  7, Variante essenziale PG 54164/07 per nuova costruzione edificio e cambio d'uso da uffici ad attività produttiva della porzione esistente ,VIA SERAGNOLI N.  7,2008.0,PDC maggio 2009.xls,"Via Seragnoli 7, Bologna",44.5042972,11.42341
302359,2008,2008-12-22,permesso di costruire,Rilasciata,2009-09-16,47230.0,38.0,,VIA PONTEVECCHIO N.  38,"ampliamento con utilizzo dell'una tantum in unità residenziale, piano terra.",VIA PONTEVECCHIO N.  38,2008.0,PDC settembre 2009.xls,"Via Pontevecchio 38, Bologna",44.4777128,11.3794872
303574,2008,2008-12-23,permesso di costruire,Rilasciata,2009-07-10,750.0,121.0,4,VIA AGUCCHI N.  121 / 4,"Ampliamento con utilizzo dell'indice del lotto, di salone per esposizione e vendita autovetture (piano terra)",VIA AGUCCHI N.  121 / 4,2008.0,PDC luglio 2009.xls,"Via Agucchi 121 / 4, Bologna",44.5117139,11.2995347
1620,2009,2009-01-07,permesso di costruire,Rilasciata,2009-07-10,4850.0,19.0,,VIA DELLA BARCA N.  19,costruzione di bussola di accesso all'edificio residenziale,VIA DELLA BARCA N.  19,2009.0,PDC luglio 2009.xls,"Via Della Barca 19, Bologna",44.4939261,11.2977983
3376,2009,2009-01-08,permesso di costruire,Rilasciata con prescrizioni,2010-04-22,23330.0,1.0,5,VIA DEL FONDITORE N.  1 / 5,"ampliamento con cambio d'uso per realizzazione di servizi di ristorazione, uffici e laboratorio artigianale (pratica presentata al Settore Attività Produttive e Commerciali con PG 305325/08) ",VIA DEL FONDITORE N.  1 / 5,2009.0,PDC aprile 2010.xls,"Via Del Fonditore 1 / 5, Bologna",44.5038494,11.4041353
3536,2009,2009-01-09,permesso di costruire,Rilasciata,2010-07-06,55350.0,,,VIA DEL SOSTEGNAZZO,Nuova costruzione di edificio ad uso uffici (n. 2 u.i.),VIA DEL SOSTEGNAZZO,2009.0,PDC luglio 2010.xls,"Via Del Sostegnazzo, Bologna",44.5316744,11.3438762
3597,2009,2009-01-09,permesso di costruire,Rilasciata,2009-07-10,7400.0,8.0,a,VIA ELIO BERNARDI N.  8 / a,Demolizione con ricostruzione parzialmente fuori sagoma di edificio promiscuo ad uso Sala da ballo/magazzino e contestuale cambio d'uso ad uffici.,VIA ELIO BERNARDI N.  8 / a,2009.0,PDC luglio 2009.xls,"Via Elio Bernardi 8 / A, Bologna",44.5093791,11.3005241
5725,2009,2009-01-13,permesso di costruire,Rilasciata,2009-05-08,17950.0,203.0,,VIA DI CORTICELLA N.  203,Nuova costruzione di edificio ad uso uffici (U2) e attività commerciali (U6) previo demolizione di edifici esistenti.,VIA DI CORTICELLA N.  203,2009.0,PDC maggio 2009.xls,"Via Di Corticella 203, Bologna",44.5345235,11.3549224
9062,2009,2009-01-16,permesso di costruire,Rilasciata,2009-03-17,5800.0,172.0,,VIA BATTINDARNO N.  172,Realizzazione di ampliamento una tantum per sopraelevazione di edificio unifamiliare,VIA BATTINDARNO N.  172,2009.0,PDC marzo 2009.xls,"Via Battindarno 172, Bologna",44.503809,11.3005589
10394,2009,2009-01-19,permesso di costruire,Rilasciata,2009-07-07,47700.0,14.0,,VIA DEL POZZO N.  14,nuova costruzione previa demolizione di edificio ad uso residenziale con utilizzo dell'indice edificatorio,VIA DEL POZZO N.  14,2009.0,PDC luglio 2009.xls,"Via Del Pozzo 14, Bologna",44.4548056,11.3699949
11203,2009,2009-01-20,permesso di costruire,Rilasciata,2009-05-20,18000.0,196.0,,VIA ANDREA COSTA N.  196,per realizzazione di tettoia ad uso ricovero auto pertinenziale a servizio di edificio non classificato,VIA ANDREA COSTA N.  196,2009.0,PDC maggio 2009.xls,"Via Andrea Costa 196, Bologna",44.4931493,11.3069538
13239,2009,2009-01-21,permesso di costruire,Rinunciata,2012-01-20,53300.0,19.0,,VIA S.SAVINO N.  19,Ampliamento di u.i. ad uso abitativo con utilizzo dell'incremento una tantum.,VIA S.SAVINO N.  19,2009.0,PDC maggio 2009.xls,"Via S.Savino 19, Bologna",44.5490273,11.3532496
14740,2009,2009-01-23,permesso di costruire,Rilasciata,2009-07-22,17950.0,102.0,,VIA DI CORTICELLA N.  102,Variante in corso d'opera essenziale al PdC PG 280376/07 e Dia stralcio PG 273264/08 per opere interne di manutenzione straordinaria nonchè ampliamento della cabina elettrica esistente.,VIA DI CORTICELLA N.  102,2009.0,PDC luglio 2009.xls,"Via Di Corticella 102, Bologna",44.5173445,11.3476682
18020,2009,2009-01-28,permesso di costruire,Rilasciata,2009-08-05,17400.0,81.0,,VIA CRISTOFORO COLOMBO N.  81,Variante in c.o. alla p.g. 215462/2006 ampliamento di edificio residenziale bifamiliare,VIA CRISTOFORO COLOMBO N.  81,2009.0,PDC agosto 2009.xls,"Via Cristoforo Colombo 81, Bologna",44.5460473,11.3487275
43178,2009,2009-02-24,permesso di costruire,Rilasciata,2009-12-03,20500.0,213.0,,VIA S.DONATO N.  213,DEMOLIZIONE E RICOSTRUZIONE DI EDIFICIO AD USO CIVILE ABITAZIONE CON CONTESTUALE FRAZIONAMENTO IN N. 6 UNITA' IMMOBILIARI (EDIFICIO INDIVIDUATO CON LA LETTERA A),VIA S.DONATO N.  213,2009.0,PDC dicembre 2009.xls,"Via S.Donato 213, Bologna",44.5242514,11.4113478
96221,2009,2009-04-23,permesso di costruire,Rilasciata,2009-07-30,54320.0,7.0,,VIA SERAGNOLI N.  7,Variante in c.o. alla pg. 256773/2007 per modifica alla sagoma degli uffici di pertinenza del capannone.,VIA SERAGNOLI N.  7,2009.0,PDC luglio 2009.xls,"Via Seragnoli 7, Bologna",44.5042972,11.42341
106787,2009,2009-05-05,permesso di costruire,Rilasciata,2010-05-27,53300.0,37.0,,VIA S.SAVINO N.  37,nuova costruzione di sala polivalente all'interno di complesso parrocchiale,VIA S.SAVINO N.  37,2009.0,PDC maggio 2010.xls,"Via S.Savino 37, Bologna",44.5474744,11.351926
122973,2009,2009-05-19,permesso di costruire,Rilasciata,2010-03-04,18150.0,1.0,,PIAZZA DELLA COSTITUZIONE N.  1,Nuova costruzione per ampliamento una tantum di struttura ricettiva. ,PIAZZA DELLA COSTITUZIONE N.  1,2009.0,PDC marzo 2010.xls,"Piazza Della Costituzione 1, Bologna",44.5128728,11.3590175
127595,2009,2009-05-22,permesso di costruire,Rilasciata,2009-10-19,62700.0,12.0,,VIA ERMETE ZACCONI N.  12,"Variante in c.o. alla  73022/2007  per modifiche interne,estetiche e modesto ampliamento locale bagno",VIA ERMETE ZACCONI N.  12,2009.0,PDC ottobre 2009.xls,"Via Ermete Zacconi 12, Bologna",44.5051799,11.3634883
138165,2009,2009-06-01,permesso di costruire,Decaduta,2010-07-19,20500.0,,,VIA S.DONATO,REALIZZAZIONE DI IMPIANTO DI DISTRIBUZIONE CARBURANTI,VIA S.DONATO,2009.0,PDC marzo 2010.xls,"Via S.Donato, Bologna",44.5084511,11.3779247
140082,2009,2009-06-04,permesso di costruire,Rinunciata,2010-07-01,46650.0,2.0,11,VIA PO N.  2 / 11,"demolizione e ricostruzione di intero edificio (uso abitativo, commerciale, uffici)",VIA PO N.  2 / 11,2009.0,PDC giugno 2010.xls,"Via Po 2 / 11, Bologna",44.47851,11.3811526
151157,2009,2009-06-15,permesso di costruire,Rilasciata,2009-11-05,32280.0,6.0,,VIA DEL LITOGRAFO N.  6," vcd'o. alla pg. 61059/2006 per opere interne ed esterne,  unità ad uso produttivo.",VIA DEL LITOGRAFO N.  6,2009.0,PDC novembre 09.xls,"Via Del Litografo 6, Bologna",44.5058143,11.4168035
180903,2009,2009-07-13,permesso di costruire,Rilasciata con prescrizioni,2009-12-28,50780.0,21.0,,VIALE ROMA N.  21,nuova costruzione di asilo nido territoriale e aziendale (presentata al Settore Attività Produttive il 09/07/09 con PG 178339/09),VIALE ROMA N.  21,2009.0,PDC dicembre 2009.xls,"Viale Roma 21, Bologna",44.4696611,11.3915301
268955,2009,2009-10-30,permesso di costruire,Rilasciata,2010-04-20,23580.0,19.0,,VIA GHERARDO FORNI N.  19,"v.c.o.in corso d'opera per realizzazione di nuova SA interrata sotto sedime , cambio d'uso da 1a a 3b dell'unità al piano 4°(unità 18) aumento del numero delle unità immobiliari da 26 a 27.",VIA GHERARDO FORNI N.  19,2009.0,PDC aprile 2010.xls,"Via Gherardo Forni 19, Bologna",44.4758934,11.3736111
306442,2009,2009-12-16,permesso di costruire,Rilasciata con prescrizioni,2011-09-05,61150.0,18.0,,VIA VERMENA N.  18,"realizzazione di edificio residenziale, previa demolizione di fabbricato esistente, con aumento del volume ai sensi dell'art. 56, comma 3 del RUE - livello di eccellenza (20%)",VIA VERMENA N.  18,2009.0,PDC settembre 2011.xls,"Via Vermena 18, Bologna",44.4801753,11.3802955
55610,2010,2010-03-03,permesso di costruire,Rilasciata,2010-09-29,57450.0,5.0,,VIA TEVERE N.  5,"vcd'o alla pg. 213807/2007 per ampliamento dell'autorimessa, modifiche prospettiche ed interne.",VIA TEVERE N.  5,2010.0,PDC settembre 2010.xls,"Via Tevere 5, Bologna",44.4733617,11.3847193
56721,2010,2010-03-04,permesso di costruire,Rilasciata con prescrizioni,2010-10-12,37300.0,174.0,,VIA MAZZINI N.  174,"demolizione di edificio ad uso produttivo e realizzazione di edifici mono e bi-familiari a piano terra, primo e secondo, e realizzazione di superficie interrata ad uso parcheggio privato (uso abitativo)",VIA MAZZINI N.  174,2010.0,PDC ottobre 2010.xls,"Via Mazzini 174, Bologna",44.4001693,11.593601
68757,2010,2010-03-18,permesso di costruire,Rilasciata con prescrizioni,2010-08-05,21350.0,18.0,,VIA EMILIA LEVANTE N.  18,demolizione e ricostruzione di intero edificio con diversa sagoma e realizzazione p.interrato ad uso commercio all'auto,VIA EMILIA LEVANTE N.  18,2010.0,PDC agosto 2010.xls,"Via Emilia Levante 18, Bologna",44.4831883,11.3759718
94802,2010,2010-04-20,permesso di costruire,Rilasciata,2010-08-10,20500.0,178.0,2,VIA S.DONATO N.  178 / 2,realizzazione di bussole d'ingresso  edificio uso tipografia e variazioni  distributive interne,VIA S.DONATO N.  178 / 2,2010.0,PDC agosto 2010.xls,"Via S.Donato 178 / 2, Bologna",44.5178029,11.3944213
97854,2010,2010-04-22,permesso di costruire,Rilasciata con prescrizioni,2019-03-14,57900.0,,,VIA DELLE TOFANE in prossimità civ. 34,permesso di costruire per la realizzazione di nuovo edificio ad uso residenziale composto da n° 3 unità immobiliari tramite l'applicazione dell'art. 10 del POC,VIA DELLE TOFANE N. 34,2010.0,PDC marzo 2019_0.xls,"Via Delle Tofane 34, Bologna",44.4968459,11.3149248
104634,2010,2010-04-28,permesso di costruire,Rilasciata,2010-08-10,20700.0,16.0,,VIA DOSSO DOSSI N.  16,DEMOLIZIONE E RICOSTRUZIONE DI EDIFICIO CON VARIAZIONE SAGOMA PLANIVOLUMETRICA ,VIA DOSSO DOSSI N.  16,2010.0,PDC agosto 2010.xls,"Via Dosso Dossi 16, Bologna",44.5018854,11.2987412
133222,2010,2010-05-26,permesso di costruire,Rilasciata,2011-11-24,4850.0,33.0,2,VIA DELLA BARCA N.  33 / 2,nuova costruzione di edificio parte artigianale e parte residenziale,VIA DELLA BARCA N.  33 / 2,2010.0,PDC novembre 2011.xls,"Via Della Barca 33 / 2, Bologna",44.4961269,11.2926399
192172,2010,2010-07-28,permesso di costruire,Rilasciata,2010-12-23,37350.0,8.0,,VIA CORRADO MAZZONI N.  8,"ampliamento opere parrocchiali, piano terra.",VIA CORRADO MAZZONI N.  8,2010.0,PDC dicembre 2010.xls,"Via Corrado Mazzoni 8, Bologna",44.4716061,11.3832146
196911,2010,2010-08-03,permesso di costruire,Rilasciata con prescrizioni,2011-02-24,36800.0,221.0,5,VIA GIUSEPPE MASSARENTI N.  221 / 5,"ampliamento del 20% ai sensi dell'art. 56 del RUE di edificio già industriale, e cambio di destinazione verso la residenza ",VIA GIUSEPPE MASSARENTI N.  221 / 5,2010.0,PDC febbraio 2011.xls,"Via Giuseppe Massarenti 221 / 5, Bologna",44.492576,11.3884709
221622,2010,2010-09-14,permesso di costruire,Rilasciata,2010-11-03,35100.0,,,VIA MARCO EMILIO LEPIDO  ( Civico da definire ),Variante in c.o. minore alla PG 84930/2006 per la modifica alla nuova realizzazione di una serra per colture aziendali (PDC INVIATO PER POSTA PERVENUTO IL 10/09/2010),VIA MARCO EMILIO LEPIDO  ( Civico da definire ),2010.0,PDC novembre 2010.xls,"Via Marco Emilio Lepido ( ), Bologna",44.5211611,11.2534693
295438,2010,2010-12-09,permesso di costruire,Rilasciata,2011-04-18,30450.0,90.0,,VIA S.ISAIA N.  90,PERMESSO DI COSTRUIRE IN VCO  PER INTERVENTI DI RESTAURO E RISANAMENTO CONSERVATIVO RELATIVI ALL'INTERO EDIFICIO  ,VIA S.ISAIA N.  90,2010.0,PDC aprile 2011.xls,"Via S.Isaia 90, Bologna",44.4942067,11.3305436
10742,2011,2011-01-20,permesso di costruire,Rilasciata,2011-04-01,37100.0,14.0,3,VIA GIACOMO MATTEOTTI N.  14 / 3,Demolizione di edificio uso produttivo con ricostruzione parzialmente fuori sagoma a parità di volume con uso di progetto abitativo,VIA GIACOMO MATTEOTTI N.  14 / 3,2011.0,PDC aprile 2011.xls,"Via Giacomo Matteotti 14 / 3, Bologna",44.5075253,11.3452983
48234,2011,2011-03-03,permesso di costruire,Rinunciata su istanza di parte,2011-06-30,23250.0,23.0,,VIA ALESSANDRO FLEMING N.  23,demolizione e ricostruzione fuori sagoma con ampliamento art.56 RUE (uso abitativo),VIA ALESSANDRO FLEMING N.  23,2011.0,PDC  giugno 2011.xls,"Via Alessandro Fleming 23, Bologna",44.4697575,11.3662053
120364,2011,2011-05-25,permesso di costruire,Rilasciata,2011-11-30,17810.0,9.0,,VIA NATALINO CORAZZA N.  9,a sanatoria per la realizzazione di due tettoie e recupero di superficie entro sagoma del capannone ,VIA NATALINO CORAZZA N.  9,2011.0,PDC novembre 2011.xls,"Via Natalino Corazza 9, Bologna",44.5284447,11.3536261
122183,2011,2011-05-26,permesso di costruire,Rilasciata con prescrizioni,2012-01-17,11950.0,47.0,,VIA ALFREDO CALZOLARI N.  47,NC di edificio ad uso residenziale previo demolizione di fabbricato ad uso direzionale (3a),VIA ALFREDO CALZOLARI N.  47,2011.0,PDC gennaio 2012.xls,"Via Alfredo Calzolari 47, Bologna",44.519875,11.3515946
127727,2011,2011-06-01,permesso di costruire,Rilasciata con prescrizioni,2011-11-07,24730.0,5.0,,VIA FRIULI-VENEZIA GIULIA N.  5,"demolizione e ricostruzione di edificio residenziale, con ampliamento ai sensi dell'art. 56, comma 3, del RUE.",VIA FRIULI-VENEZIA GIULIA N.  5,2011.0,PDC novembre 2011.xls,"Via Friuli-Venezia Giulia 5, Bologna",44.4779061,11.3819832
166242,2011,2011-07-07,permesso di costruire,Rilasciata,2011-09-12,1050.0,32.0,,VIA ADOLFO ALBERTAZZI N.  32,Variante finale per N.C. fuori sagoma e opere interne all'edificio,VIA ADOLFO ALBERTAZZI N.  32,2011.0,PDC settembre 2011.xls,"Via Adolfo Albertazzi 32, Bologna",44.4820632,11.3651954
180691,2011,2011-07-26,permesso di costruire,Rilasciata,2011-10-21,58900.0,1.0,,VIA DEL TRAGHETTO N.  1,nuova costruzione di cabina elettrica pratica entrata con procedimento unico imprese P.G. n.178263/11 ,VIA DEL TRAGHETTO N.  1,2011.0,PDC ottobre 2011.xls,"Via Del Traghetto 1, Bologna",44.5298287,11.3137353
246207,2011,2011-10-20,permesso di costruire,Rilasciata con prescrizioni,2012-03-08,9100.0,45.0,,VIA ANTONIO BONDI N.  45,demolizione di edificio e ricostruzione con ampliamento ai sensi dell'art. 56 comma 3 del RUE,VIA ANTONIO BONDI N.  45,2011.0,PDC marzo 2012.xls,"Via Antonio Bondi 45, Bologna",44.4917262,11.3708484
273567,2011,2011-11-24,permesso di costruire,Rilasciata con prescrizioni,2012-06-12,45870.0,11.0,,VIA SAN PIER TOMMASO N.  11,demolizione di edificio ad uso 2a e ricostruzione edificio ad uso residenziale con ampliamento del 20 % ai sensi del comma 3 art.56 RUE ad uso  2a ,VIA SAN PIER TOMMASO N.  11,2011.0,PDC giugno 2012.xls,"Via San Pier Tommaso 11, Bologna",44.4878363,11.3770169
278242,2011,2011-11-30,permesso di costruire,Rilasciata con prescrizioni,2012-10-17,9830.0,2.0,,VIA GIUSEPPE BOSI N.  2,"realizzazione di edificio prevalentemente residenziale a piano interrato e da terra a terzo, previa demolizione di fabbricato esistente e applicazione dell'art. 56 comma 3 del RUE (10%)",VIA GIUSEPPE BOSI N.  2,2011.0,PDC ottobre 2012.xls,"Via Giuseppe Bosi 2, Bologna",44.4521892,11.3635384
279076,2011,2011-12-01,permesso di costruire,Rilasciata,2012-04-13,54320.0,7.0,,VIA SERAGNOLI N.  7, Variante in corso d'opera minore al P.di C. 300126/2008 aumento di volume in edificio ad uso produttivo associato a opere di manutenzione straordinaria ed estetiche ,VIA SERAGNOLI N.  7,2011.0,PDC aprile 2012.xls,"Via Seragnoli 7, Bologna",44.5042972,11.42341
279105,2011,2011-12-01,permesso di costruire,Rilasciata con prescrizioni,2012-08-08,20700.0,9.0,,VIA DOSSO DOSSI N.  9 nelle vicinanze del numero civico 9,Permesso di Costruire per nuova costruzione di edificio residenziale bifamiliare,VIA DOSSO DOSSI N.  9,2011.0,PDC agosto 2012.xls,"Via Dosso Dossi 9, Bologna",44.5016297,11.2997125
283850,2011,2011-12-07,permesso di costruire,Rilasciata con prescrizioni,2012-07-27,55950.0,71.0,,VIA STALINGRADO N.  71,Demolizione e fedele ricostruzione in sagoma planivolumetrica di alcuni edific di interesse documentale e realizzazione di nuovo edificio ad uso commerciale con aumento del 20% ai sensi del comma 3 dell'art.56 RUE e realizzazione di nuova cabina ENEL all'interno volume esistente.,VIA STALINGRADO N.  71,2011.0,PDC luglio 2012.xls,"Via Stalingrado 71, Bologna",44.5189125,11.3625498
293486,2011,2011-12-21,permesso di costruire,Rilasciata,2012-10-29,17200.0,59.0,,VIA DEI COLLI N.  59,permesso di costruire per la realizzazione di autorimesse non completamente interrate fuori dall'area di sedime dell'edificio residenziale e per la realizzazione di un disimpegno di collegamento con il piano interrato dell'edificio oltre alla demolizione di un pergolato a protezione di posti auto pertinenziali - rif AP n° 270380/2011,VIA DEI COLLI N.  59,2011.0,PDC ottobre 2012.xls,"Via Dei Colli 59, Bologna",44.4496176,11.3072233
1186,2012,2012-01-03,permesso di costruire,Rilasciata,2012-06-05,18150.0,1.0,,PIAZZA DELLA COSTITUZIONE N.  1,Variante in corso d'opera essenziale al PdC PG 53627/11 consistente in ampliamento di strruttura ricettiva ai sensi dell'art. 32.4 RUE e modifiche interne ed esterne sul complesso esistente ( domanda presentata al Settore Attività Produttive il 22/12/11 con PG 294973/11),PIAZZA DELLA COSTITUZIONE N.  1,2012.0,PDC giugno 2012.xls,"Piazza Della Costituzione 1, Bologna",44.5128728,11.3590175
37959,2012,2012-02-16,permesso di costruire,Rilasciata con prescrizioni,2012-07-27,7950.0,1.0,,VIA NINO BERTOCCHI N.  1,Permesso di Costruire (per ambiti) per nuova costruzione in ampliamento a u.i. ad uso ristorante (5c) previo recupero di volumetrie condonate.,VIA NINO BERTOCCHI N.  1,2012.0,PDC luglio 2012.xls,"Via Nino Bertocchi 1, Bologna",44.4998268,11.2955799
104390,2012,2012-05-03,permesso di costruire,Rilasciata con prescrizioni,2013-01-22,6150.0,5.0,,VIA BELLACOSTA N.  5  -  7,"Variante in corso d'opera per la modifica di autorimessa interrata fuori sagoma e sedime e riqualificazione dei volumi esterni ad uso tettoia, opere interne e varianti estetiche  ",VIA BELLACOSTA N.  5  -  7,2012.0,PDC gennaio 2013.xls,"Via Bellacosta 5 - 7, Bologna",44.4778529,11.3567051
114912,2012,2012-05-11,permesso di costruire,Rilasciata con prescrizioni,2012-11-06,46000.0,13.0,,VIALE PIETRO PIETRAMELLARA N.  13,Variante essenziale a Pg 134479/2009 per demolizione e ricostruzione di edificio con modifica della sagoma senza aumento di volume,VIALE PIETRO PIETRAMELLARA N.  13,2012.0,PDC novembre 2012.xls,"Viale Pietro Pietramellara 13, Bologna",44.5052239,11.3391354
181476,2012,2012-07-26,permesso di costruire,Rilasciata,2012-10-16,52550.0,24.0,,VIA DELLA SALUTE N.  24,Ampliamento di edificio per chiusura di corte interna e frazionamento da n.1a n.2  u.i. ad uso industriale (2a),VIA DELLA SALUTE N.  24,2012.0,PDC ottobre 2012.xls,"Via Della Salute 24, Bologna",44.5278652,11.2759479
233827,2012,2012-10-03,permesso di costruire,Rilasciata,2012-11-30,23050.0,42.0,2,VIA ARISTOTILE FIORAVANTI N.  42 / 2,Permesso di Costruire (per ambiti) per sopraelevazione  di piano uso albergo,VIA ARISTOTILE FIORAVANTI N.  42 / 2,2012.0,PDC novembre 2012.xls,"Via Aristotile Fioravanti 42 / 2, Bologna",44.5138698,11.3412938
243222,2012,2012-10-15,permesso di costruire,Rilasciata con prescrizioni,2013-01-31,29550.0,76.0,,VIA GUELFA N.  76,vcd'o minore alla pg. 240185/2012 per aumento di volume senza modifica di sedime ,VIA GUELFA N.  76,2012.0,PDC gennaio 2013.xls,"Via Guelfa 76, Bologna",44.4918674,11.3894146
291962,2012,2012-12-13,permesso di costruire,Rilasciata con prescrizioni,2013-03-12,3250.0,38.0,,VIA BRUNO ARNAUD N.  38,Variante in c.o. alla PG 240343/2011 per ispessimento dei solai con aumento di volume in edificio residenziale,VIA BRUNO ARNAUD N.  38,2012.0,PDC marzo 2013.xls,"Via Bruno Arnaud 38, Bologna",44.5182421,11.3512279
296832,2012,2012-12-19,permesso di costruire,Rilasciata,2013-02-20,55950.0,71.0,,VIA STALINGRADO N.  71,"realizzazione di edifici ad uso commerciale (4d), previa demolizione di edificio esistente, e ampliamento volumetrico ai sensi dell'art. 56 comme 3 del RUE - in variante essenziale alla SCIA PG 275825/2011 ed al P di C PG 283850/2011",VIA STALINGRADO N.  71,2012.0,PDC febbraio 2013.xls,"Via Stalingrado 71, Bologna",44.5189125,11.3625498
16736,2013,2013-01-24,permesso di costruire,Rilasciata con prescrizioni,2013-10-11,20080.0,46.0,,VIA QUIRINO DI MARZIO N.  46 48-50,"Variante in c.o.essenziale alla p.g 48830/2008 per nuova costruzione di edificio ad uso abitativo previa demolizione di edificio esistente, con utilizzo incremento una tantum del 20% di cui all'art 56 rue",VIA QUIRINO DI MARZIO N.  46 48-50,2013.0,PDC ottobre 2013.xls,"Via Quirino Di Marzio 46 48-50, Bologna",44.5033155,11.294672
75595,2013,2013-04-03,permesso di costruire,Rilasciata,2013-09-20,24050.0,11.0,,VIA FRABAZZA N.  11,creazione di edificio unifamiliare tramite la ricostruzione ed ampliamento di edificio esistente tramite l'applicazione dell'art. 56 comma 3 del RUE - rif. VP n° 231351/2012,VIA FRABAZZA N.  11,2013.0,PDC settembre 2013.xls,"Via Frabazza 11, Bologna",44.5350118,11.4077783
85377,2013,2013-04-12,permesso di costruire,Rilasciata,2013-09-10,48750.0,8.0,,VIA QUARTO DI SOPRA N.  8,"Nuova costruzione di cabina sottocentrale teleriscaldamento Hera ""Podere Zena"". ",VIA QUARTO DI SOPRA N.  8,2013.0,PDC settembre 2013.xls,"Via Quarto Di Sopra 8, Bologna",44.5223956,11.4225279
121473,2013,2013-05-20,permesso di costruire,Decaduta,2014-06-25,20830.0,24.0,,VIA GIUSEPPE DOZZA N.  24,"demolizione e ricostruzione di fabbricato residenziale con applicazione dell'ampliamento del 20% ai sensi dell'art. 56 comma 3 del RUE, ristrutturazione globale di edificio architettonico contiguo e sanatoria di opere di manutenzione straordinaria",VIA GIUSEPPE DOZZA N.  24,2013.0,PDC giugno 2014.xls,"Via Giuseppe Dozza 24, Bologna",44.4941895,11.2532613
138598,2013,2013-06-06,permesso di costruire,Rilasciata,2013-09-10,4750.0,11.0,,VIA DI BARBIANO N.  11,"variante in corso d'opera alle DIA PG 249611/2008 307459/2010 per nuova costruzione di Sa interrata, recupero di Sa in Su, realizzazione di piscina e modifiche alle bucature su entrambe gli edifici",VIA DI BARBIANO N.  11,2013.0,PDC settembre 2013.xls,"Via Di Barbiano 11, Bologna",44.4611203,11.3418648
159845,2013,2013-06-26,permesso di costruire,Rilasciata con prescrizioni,2013-12-19,37000.0,44.0,,VIA ENRICO MATTEI N.  44,"ampliamento del 15% di edificio ad uso magazzino e uffici annessi ad attività di logistica e spedizioni (bartolini), ai sensi dell'art. 69 del RUE",VIA ENRICO MATTEI N.  44,2013.0,PDC dicembre 2013.xls,"Via Enrico Mattei 44, Bologna",44.4974871,11.4048773
168598,2013,2013-07-03,permesso di costruire,Rilasciata,2013-10-04,32180.0,5.0,,VIALE ABRAMO LINCOLN N.  5,"traslazione di pensilina con aggetto maggiore di m 1,50, in edificio destinato a centro commerciale Fossolo 2 in variante in corso d'opera alla SCIA 301932/2012",VIALE ABRAMO LINCOLN N.  5,2013.0,PDC ottobre 2013.xls,"Viale Abramo Lincoln 5, Bologna",44.4816176,11.3898473
192131,2013,2013-07-30,permesso di costruire,Rilasciata con prescrizioni,2013-11-25,62400.0,21.0,,VIA POMPEO VIZZANI N.  21,demolizione di edificio residenziale esisente e ricostruzione dello stesso volume (intervento di ristrutturazione edilizia) e ampliamento del piano interrato al di fuori della sagoma e del sedime legittimi,VIA POMPEO VIZZANI N.  21,2013.0,PDC novembre 2013.xls,"Via Pompeo Vizzani 21, Bologna",44.4912187,11.3675496
271251,2013,2013-10-23,permesso di costruire,Rilasciata,2014-05-06,22600.0,10.0,,VIA DELLA FERRIERA N.  10,Permesso di Costruire per ampliamento dell'ospedale privato SANTA VIOLA ,VIA DELLA FERRIERA N.  10,2013.0,PDC maggio 2014.xls,"Via Della Ferriera 10, Bologna",44.505594,11.3040045
319233,2013,2013-12-12,permesso di costruire,Rilasciata con prescrizioni,2014-09-04,24000.0,29.0,,VIA FOSSOLO N.  29,parziale demolizione di edificio esistente e ricostruzione di edificio annesso ad attività di culto (opere ministero pastorale) con utilizzo dell'ampliamento previsto dall'art. 45 del RUE,VIA FOSSOLO N.  29,2013.0,PDC settembre 2014.xls,"Via Fossolo 29, Bologna",44.4864862,11.3805371
10526,2014,2014-01-15,permesso di costruire,Rilasciata con prescrizioni,2014-07-08,13500.0,13.0,,VIA DE' CARRACCI N.  13,demolizione e ricostruzione di edificio ad uso uffici (3b) con applicazione dell'incremento del 20% volumetrico di cui all'art. 56 del RUE,VIA DE' CARRACCI N.  13,2014.0,PDC luglio 2014.xls,"Via De' Carracci 13, Bologna",44.5072264,11.3445073
13807,2014,2014-01-17,permesso di costruire,Rilasciata,2014-01-28,58300.0,4.0,,VIA DELLA TORRE N.  4,"realizzazione dI un piano interrato fuori dall'area di sedime dell'edificio bifamiliare per realizzazione di autorimessa e pertinenze, modifica della sistemazione esterna dell'area cortiliva con posa di pavimentazioni, abbattimenti e rimpianti di alberature, installazione di ringhiere, parapetti, due cancelli carrabili e un cancello pedonale con pensilina di protezione (SCIA n° 326671/2013 rinunciata) - autorizzazione paesaggistica n° 180914/2013",VIA DELLA TORRE N.  4,2014.0,PDC gennaio 2014.xls,"Via Della Torre 4, Bologna",44.4443255,11.3304941
27062,2014,2014-01-30,permesso di costruire,Rilasciata con prescrizioni,2014-06-11,8100.0,,,VIA DELLA BEVERARA,Permesso di Costruire per la nuova costruzione di  edificio  residenziale art 10 del POC,VIA DELLA BEVERARA,2014.0,PDC giugno 2014.xls,"Via Della Beverara, Bologna",44.511207,11.3300755
50064,2014,2014-02-19,permesso di costruire,Rilasciata con prescrizioni,2014-09-02,55950.0,,,VIA STALINGRADO  ( Civico da definire ),"Nuova costruzione di edificio da destinarsi a più attività U1 (residence), U2 ,U6 ai sensi del PRG'85 (art.11 del POC SCHEDA  P7.13)",VIA STALINGRADO  ( Civico da definire ),2014.0,PDC settembre 2014.xls,"Via Stalingrado ( ), Bologna",44.5181547,11.3626635
77292,2014,2014-03-13,permesso di costruire,Rilasciata,2014-10-01,31150.0,5.0,,VIA SILVESTRO LEGA N.  5,Permesso di Costruire  a parziale sanatoria in v.c.o. al PdC pg 64589/2012  per intervento di NC in soprelevazione rispetto al corpo ex tettoia oltre a opere di ispessimento delle murature perimetrali e opere di ristrutturazione edilizia.,VIA SILVESTRO LEGA N.  5,2014.0,PDC ottobre 2014.xls,"Via Silvestro Lega 5, Bologna",44.5070941,11.2962059
82800,2014,2014-03-19,permesso di costruire,Rilasciata,2014-07-24,13900.0,53.0,3,VIA DI CASAGLIA N.  53 / 3,Demolizione e ricostruzione di fabbricato ad uso abitativo e di tre accessori con realizzazione di superficie accessoria interrata ,VIA DI CASAGLIA N.  53 / 3,2014.0,PDC luglio 2014.xls,"Via Di Casaglia 53 / 3, Bologna",44.4702581,11.3035768
89227,2014,2014-03-26,permesso di costruire,Rilasciata,2014-10-30,54650.0,77.0,2,VIA SIEPELUNGA N.  77 / 2,Realizzazione di garages interrati in variante in corso d'opera alla SCIA PG 83984/2014,VIA SIEPELUNGA N.  77 / 2,2014.0,PDC ottobre 2014.xls,"Via Siepelunga 77 / 2, Bologna",44.4652426,11.3597127
128884,2014,2014-05-06,permesso di costruire,Rilasciata,2014-08-19,50900.0,12.0,4,VIA ROMITA N.  12 / 4,ai sensi del DPR 160/2010 per realizzazione di tettoia a servizio del Campeggio Città di Bologna - rif. : SUAP pg n° 119347/2014 -  AP pg n° 86602/2014,VIA ROMITA N.  12 / 4,2014.0,PDC agosto 2014.xls,"Via Romita 12 / 4, Bologna",44.5233466,11.374321
158614,2014,2014-05-29,permesso di costruire,Rilasciata,2014-09-10,43600.0,4.0,,VIA PALLAVICINI N.  4,"realizzazione di tettoia inferiore a m 1,50, posizionata su pergolato esistente annesso ad unità abitativa a piano terra ",VIA PALLAVICINI N.  4,2014.0,PDC settembre 2014.xls,"Via Pallavicini 4, Bologna",44.4929292,11.4045264
164576,2014,2014-06-04,permesso di costruire,Rilasciata con prescrizioni,2015-01-08,36650.0,40.0,,VIA ERNESTO MASI N.  40, Nuova Costruzione (Art. 26 c.5 - RUE) ai sensi dell'art.10 del P.O.C. - ( pratica pervenuta per paccocelere il 30/05/2014).,VIA ERNESTO MASI N.  40,2014.0,PDC gennaio 2015.xls,"Via Ernesto Masi 40, Bologna",44.4823651,11.3634463
48871,2008,2008-02-27,permesso di costruire a parziale sanatoria,Rilasciata,2008-10-14,36800.0,161.0,,VIA GIUSEPPE MASSARENTI N.  161,"ampliamento fuori sagoma - previa demolizione di edificio plurifamiliare esistente - con utilizzo di superficie una-tantum per la realizzazione di unità abitative in edificio a piano interrato, terra, primo e secondo",VIA GIUSEPPE MASSARENTI N.  161,2008.0,PDC ottobre 2008.xls,"Via Giuseppe Massarenti 161, Bologna",44.4933787,11.3821271
80614,2008,2008-04-08,permesso di costruire a parziale sanatoria,Rilasciata con prescrizioni,2008-12-23,21750.0,1.0,12,VIA DEL FAGGIOLO N.  1 / 12,Modifiche interne ed esterne con variazione della sagoma planivolumetrica senza aumento di superficie per ricavare due unità immobiliari ad uso direzionale,VIA DEL FAGGIOLO N.  1 / 12,2008.0,PDC dicembre 2008.xls,"Via Del Faggiolo 1 / 12, Bologna",44.5121575,11.282706
81885,2008,2008-04-09,permesso di costruire a parziale sanatoria,Rilasciata,2008-11-11,23330.0,9.0,,VIA DEL FONDITORE N.  9,"permesso di costruire in sanatoria per la realizzazione di manufatti tecnologici e di deposito solventi, annessi ad attività industriale - zona roveri - piano terra",VIA DEL FONDITORE N.  9,2008.0,PDC novembre 2008.xls,"Via Del Fonditore 9, Bologna",44.5027835,11.4035427
106222,2008,2008-05-07,permesso di costruire a parziale sanatoria,Rilasciata,2008-11-19,28350.0,30.0,3,VIA DEL GOMITO N.  30 / 3  ( Civico da definire ),Richiesta di Permesso di Costruire a parziale sanatoria per la realizzazione di edificio agricolo in posizione diversa dalla licenza originaria ( Nc) e successive opere di progetto consistenti in demolizione e ricostruzione con variazione di sagoma planivolumetrica nonchè cambio di destinazione d' uso per la realizzazione di un alloggio e relativa autorimessa,VIA DEL GOMITO N.  30 / 3  ( Civico da definire ),2008.0,PDC novembre 2008.xls,"Via Del Gomito 30 / 3 ( ), Bologna",44.5281924,11.38701
148386,2008,2008-06-12,permesso di costruire a parziale sanatoria,Rilasciata con prescrizioni,2008-11-11,60230.0,25.0,,VIA VALLE D'AOSTA N.  25,per  aumento di S.a. interrata e variazione della sagoma mentre le opere di progetto sono di   N.C. fuori sagoma con demolizione e ricostruzione dell'esistente associato a N.C. di Sa interrata e C.D. da U1 e U10 in U1 ,VIA VALLE D'AOSTA N.  25,2008.0,PDC novembre 2008.xls,"Via Valle D'Aosta 25, Bologna",44.4740117,11.3846122
182560,2008,2008-07-15,permesso di costruire a parziale sanatoria,Rilasciata,2008-11-10,37750.0,40.0,,VIA GIUSEPPE MENGONI N.  40,Permesso di costruire a parziale sanatoriaper l' ampliamento di un edificio esistente,VIA GIUSEPPE MENGONI N.  40,2008.0,PDC novembre 2008.xls,"Via Giuseppe Mengoni 40, Bologna",44.5489592,11.3505931
219607,2008,2008-09-15,permesso di costruire a parziale sanatoria,Rilasciata,2009-02-23,56330.0,5.0,,VIA RICCARDO STRACCIARI N.  5,NC - Nuova costruzione - Art. 46 N. di P. del R.E. per ampliamento di Su su lastrico solare;sanatoria per difformità rispetto ai precedenti edilizi,VIA RICCARDO STRACCIARI N.  5,2008.0,PDC febbraio 2009.xls,"Via Riccardo Stracciari 5, Bologna",44.4693285,11.3787124
25294,2009,2009-02-05,permesso di costruire a parziale sanatoria,Rilasciata,2009-08-05,37100.0,6.0,,VIA GIACOMO MATTEOTTI N.  6,Parziale sanatoria per opere edili realizzate in difformita' a condono edilizio ed ampliamento con il ricorso alla capacita' edificatoria dell'una tantum,VIA GIACOMO MATTEOTTI N.  6,2009.0,PDC agosto 2009.xls,"Via Giacomo Matteotti 6, Bologna",44.5077102,11.3461193
90437,2009,2009-04-17,permesso di costruire a parziale sanatoria,Rilasciata,2010-02-02,17400.0,91.0,,VIA CRISTOFORO COLOMBO N.  91,Permesso di costruire a parziale sanatoria per  la realizzazione di ampliamento fuori sagoma,VIA CRISTOFORO COLOMBO N.  91,2009.0,PDC febbraio 2010.xls,"Via Cristoforo Colombo 91, Bologna",44.5468177,11.3491008
123260,2009,2009-05-19,permesso di costruire a parziale sanatoria,Rilasciata,2010-04-08,33200.0,1.0,2,VIA AMBROGIO MAGENTA N.  1 / 2,richiesta di sanatoria ai sensi del prg vigente consistente in ampliamento Una Tantum su terrazzo pertinenziale di unità abitativa; opere di progetto di manutenzione straordinaria,VIA AMBROGIO MAGENTA N.  1 / 2,2009.0,PDC aprile 2010.xls,"Via Ambrogio Magenta 1 / 2, Bologna",44.513769,11.3479731
115086,2011,2011-05-19,permesso di costruire a parziale sanatoria,Rilasciata con prescrizioni,2012-06-12,54580.0,29.0,,VIA WILLIAM SHAKESPEARE N.  29,parziale sanatoria per la realizzazione di box e tre serbatoi per impianto di ultrafiltrazione ed osmosi con opere di progetto di un box per impianto pressurizzazione osmosi ( IFTI all'interno del depuratore),VIA WILLIAM SHAKESPEARE N.  29,2011.0,PDC giugno 2012.xls,"Via William Shakespeare 29, Bologna",44.5519186,11.3642423
38647,2012,2012-02-16,permesso di costruire a parziale sanatoria,Rilasciata con prescrizioni,2012-06-08,11120.0,2.0,,VIA CADUTI DI AMOLA N.  2,NC di edificio ad uso commerciale di media piccola struttura alimentare (4c) previa demolizione (già avvenuta PdC 84903/2007 - scaduto) di volumi ad uso industriale. pervenuta per posta il 01/02/2012,VIA CADUTI DI AMOLA N.  2,2012.0,PDC giugno 2012.xls,"Via Caduti Di Amola 2, Bologna",44.514328,11.2818718
130288,2012,2012-05-30,permesso di costruire a parziale sanatoria,Rilasciata,2012-10-25,5800.0,91.0,,VIA BATTINDARNO N.  91,Parziale sanatoria per realizzazione di centrale tecnologica interrata e realizzazione a completamento di torri evaporative con utilizzo del 10% del volume.,VIA BATTINDARNO N.  91,2012.0,PDC ottobre 2012.xls,"Via Battindarno 91, Bologna",44.5039372,11.2997808
22527,2008,2008-01-29,permesso di costruire a sanatoria,Rilasciata,2008-10-17,52450.0,7.0,,VIA DI SALICETO N.  7,sanatoria per nuova costruzione di volume tecnico su coperto ed innalzamento volumetria edificio,VIA DI SALICETO N.  7,2008.0,PDC ottobre 2008.xls,"Via Di Saliceto 7, Bologna",44.5143922,11.3501685
56882,2008,2008-03-06,permesso di costruire a sanatoria,Rilasco parziale - Diniego parziale,2012-04-13,58600.0,170.0,,VIA TOSCANA N.  170,sanatoria per nuova costruzione,VIA TOSCANA N.  170,2008.0,PDC aprile 2012.xls,"Via Toscana 170, Bologna",44.4549711,11.3683549
274971,2008,2008-11-18,permesso di costruire a sanatoria,Rilasciata,2009-02-24,22400.0,219.0,6,VIA FERRARESE N.  219 / 6,Nuova costruzione di manufatto edilizio uso magazzino  ed realizzazione di gazebo con annessi servizi igienici e ripostigli,VIA FERRARESE N.  219 / 6,2008.0,PDC febbraio 2009.xls,"Via Ferrarese 219 / 6, Bologna",44.5305177,11.367576
297517,2008,2008-12-16,permesso di costruire a sanatoria,Rilasciata,2009-04-29,17950.0,191.0,,VIA DI CORTICELLA N.  191,"Richiesta di PdC relativo all'ampliamento di edificio ad uso civile abitazione, frazionamento di unità abitativa e aumento di superficie utile emtro sagoma.",VIA DI CORTICELLA N.  191,2008.0,PDC aprile 2009.xls,"Via Di Corticella 191, Bologna",44.5330832,11.3545097
301766,2008,2008-12-19,permesso di costruire a sanatoria,parziale Rilasciata e parziale diniego,2009-06-24,9300.0,2.0,,VIA FRATELLI BORDONI N.  2,Sanatoria per nuova costruzione di fabbricati in area di pertinenza di edificio esistente (verbale PG 206399/08),VIA FRATELLI BORDONI N.  2,2008.0,PDC giugno 2009.xls,"Via Fratelli Bordoni 2, Bologna",44.501862,11.311085
307055,2008,2008-12-30,permesso di costruire a sanatoria,Rilasciata,2009-07-07,52450.0,9.0,,VIA DI SALICETO N.  9,Permesso di Costruire a sanatoria per aumento di volume senza aumento di Superficie Utile di un fabbricato ad uso civile abitazione.,VIA DI SALICETO N.  9,2008.0,PDC luglio 2009.xls,"Via Di Saliceto 9, Bologna",44.5146562,11.3502275
9588,2009,2009-01-16,permesso di costruire a sanatoria,Rilasciata,2009-11-20,58900.0,,,VIA DEL TRAGHETTO,"sanatoria per incremento di volumetria in copertura edifico classificato 1b ,variazioni estetiche sui fronti, modifiche interne ed passaggio di superficie da accessoria ad utile",VIA DEL TRAGHETTO,2009.0,PDC novembre 09.xls,"Via Del Traghetto, Bologna",44.5286805,11.3125635
64282,2009,2009-03-18,permesso di costruire a sanatoria,Decaduta,2010-01-27,17400.0,111.0,,VIA CRISTOFORO COLOMBO N.  111,Richiesta di sanatoria consistente in nuova costruzione di manufatto adibito a proservizio/cantina pertinente a edificio abitativo,VIA CRISTOFORO COLOMBO N.  111,2009.0,PDC gennaio 2010.xls,"Via Cristoforo Colombo 111, Bologna",44.5479194,11.3495432
75459,2009,2009-03-31,permesso di costruire a sanatoria,Rilasciata,2009-12-10,22050.0,27.0,,VIA GIOVANNI FATTORI N.  27,Permesso di Costruire a sanatoria per NC e passaggi di Sa in Su realizzati in difformità dalla licenza originaria pg 25960/1961 in edificio ad uso residenziale (p.T-1-2-3-4),VIA GIOVANNI FATTORI N.  27,2009.0,PDC dicembre 2009.xls,"Via Giovanni Fattori 27, Bologna",44.5069936,11.2939599
81640,2009,2009-04-07,permesso di costruire a sanatoria,Rilasciata,2009-05-29,52400.0,12.0,,VIA AURELIO SAFFI N.  12,per traslazione di tamponamento esterno con modifica di sagoma planivolumentrica e aumento di su entro sagoma con sfruttamento di incremento una-tantum in u.i. ad uso ufficio (p.1),VIA AURELIO SAFFI N.  12,2009.0,PDC maggio 2009.xls,"Via Aurelio Saffi 12, Bologna",44.49995,11.3248831
85940,2009,2009-04-10,permesso di costruire a sanatoria,Rilasciata,2009-07-22,40910.0,12.0,2,VIA PAOLO NANNI COSTA N.  12 / 2,ampiamento di sagoma dovuta alla maggiore altezza dell'edificio ad uso produttivo/laboratoriale/commerciale in difformità dal P.diC. P.G. n. 174890/02,VIA PAOLO NANNI COSTA N.  12 / 2,2009.0,PDC luglio 2009.xls,"Via Paolo Nanni Costa 12 / 2, Bologna",44.507841,11.3082158
95185,2009,2009-04-22,permesso di costruire a sanatoria,Rilasciata,2009-06-30,54850.0,4.0,,VIA CARLO SIGONIO N.  4,"Permesso di costruire a sanatoria per opere eseguite in difformità dalla licenza edilizia Pg.32904/1955, consistenti nella realizzazione, al momento della costruzione dell'edificio, di una copertura a capanna, in luogo della copertura piana di progetto.",VIA CARLO SIGONIO N.  4,2009.0,PDC giugno 2009.xls,"Via Carlo Sigonio 4, Bologna",44.4838718,11.372414
116672,2009,2009-05-13,permesso di costruire a sanatoria,Rilasciata,2009-10-01,11130.0,1.0,,VIA CADUTI DI CASTELDEBOLE N.  1,Sanatoria per ampliamento fabbricato con incremento una tantum,VIA CADUTI DI CASTELDEBOLE N.  1,2009.0,PDC ottobre 2009.xls,"Via Caduti Di Casteldebole 1, Bologna",44.5028903,11.2788701
121185,2009,2009-05-18,permesso di costruire a sanatoria,Rilasciata,2009-09-09,21430.0,34.0,,VIA FEDERIGO ENRIQUES N.  34 p.t.,"chiusura di loggia, installazione di una casetta in legno e di una tettoia (p.t. - uso abitativo)",VIA FEDERIGO ENRIQUES N.  34 ,2009.0,PDC settembre 2009.xls,"Via Federigo Enriques 34, Bologna",44.4798818,11.3893422
138118,2009,2009-06-01,permesso di costruire a sanatoria,Rilasciata,2012-04-23,500.0,7.0,,VIA DELL'AEROPORTO N.  7,Sanatoria per costruzione di autorimessa di pertinenza - punto D del Verbale 292/2008 (la presente pratica è pervenuta mezzo raccomandata spedita il 19/05/09),VIA DELL'AEROPORTO N.  7,2009.0,PDC aprile 2012.xls,"Via Dell'Aeroporto 7, Bologna",44.5280883,11.2862838
305159,2009,2009-12-15,permesso di costruire a sanatoria,Rilasciata,2010-05-18,13500.0,8.0,11,VIA DE' CARRACCI N.  8 / 11,Richiesta di sanatoria consistente in nuova costruzione di porzione di edificio di ampliamento a rivendita/esposizione  auto (art. 11 POC),VIA DE' CARRACCI N.  8 / 11,2009.0,PDC maggio 2010.xls,"Via De' Carracci 8 / 11, Bologna",44.5089149,11.3304461
168991,2013,2013-07-04,permesso di costruire a sanatoria,Rilasciata con prescrizioni,2014-03-27,17400.0,93.0,,VIA CRISTOFORO COLOMBO N.  93,Permesso di Costruire (per ambiti) a sanatoria per demolizione e nuova costruzione di locali accessori da destinare a superficie utile abitativa,VIA CRISTOFORO COLOMBO N.  93,2013.0,PDC marzo 2014.xls,"Via Cristoforo Colombo 93, Bologna",44.5469522,11.3491138
243329,2013,2013-09-25,permesso di costruire a sanatoria,Rilasciata,2014-09-12,63100.0,,,VIA FRANCESCO ZANARDI  ( Civico da definire ),Sanatoria per nuova costruzione previa demolizione di fabbricato ad uso deposito/magazzino ,VIA FRANCESCO ZANARDI  ( Civico da definire ),2013.0,PDC settembre 2014.xls,"Via Francesco Zanardi ( ), Bologna",44.5042953,11.3321518
402266,2020,2020-10-08,permesso di costruire a sanatoria con lavori LR 15/2013,Efficace,2021-07-16,15550.0,18.0,8,VIA DELLA CAVRIOLA N.  18 / 8 INTERNO 0,"PERMESSO DI COSTRUIRE IN SANATORIA CON LAVORI per opere da realizzare di  manutenzione straordinaria consistenti in rampe di accesso, muri di  contenimento del terreno scavato e sistemazioni esterne, ed opere da sanare di  nuova costruzione  consistenti nella realizzazione di locali interrati  accessori di pertinenza di edificio ad uso residenziale",VIA DELLA CAVRIOLA N.  18 / 8 INTERNO 0,2020.0,PDC apr-set 2021.xls,"Via Della Cavriola 18 / 8, Bologna",44.4599305,11.3033213
312679,2019,2019-07-05,permesso di costruire a sanatoria con lavori LR 15/2013,Rilasciata con prescrizioni,2020-10-27,4600.0,15.0,,VIA S. BARBARA N.  15 INTERNO 0,PERMESSO DI COSTRUIRE SANATORIA CON LAVORI per opere da realizzare di  ristrutturazione edilizia consistenti modifica delle fotometrie esterne  a  seguito della diversa distribuzione interna in due edifici esistenti allo stato  grezzo e mai completati e opere da sanare di nuova costruzione consistenti in  ampliamento di vani tecnici interrati fuori sedile oltre che applicazione  dell'art. 100 negli edifici ad uso residenziali siti in via santa barbara  15-17-19,VIA S. BARBARA N.  15 INTERNO 0,2019.0,PDC ago - dic 2020.xls,"Via S. Barbara 15, Bologna",44.4739532,11.35708
313930,2015,2015-10-12,permesso di costruire a sanatoria con lavori LR 15/2013,Rilasciata con prescrizioni,2016-03-17,36250.0,17.0,,VIA MARZABOTTO N.  17 INTERNO 0,PERMESSO DI COSTRUIRE a sanatoria con lavori per opere di manutenzione straordinaria (demolizioni)  realizzate e per opere da realizzare di demolizione di un edificio e sua ricostruzione con l'ampliamento una tantum del 20% di cui all'art. 56 del RUE per realizzazione un edificio trifamiliare.,VIA MARZABOTTO N.  17 INTERNO 0,2015.0,PDC marzo 2016.xls,"Via Marzabotto 17, Bologna",44.5014141,11.3112733
125003,2017,2017-04-06,permesso di costruire a sanatoria con lavori LR 15/2013,Rilasciata,2017-05-19,35100.0,247.0,,VIA MARCO EMILIO LEPIDO N.  247 INTERNO 0,PERMESSO DI COSTRUIRE SANATORIA CON LAVORI per opere da realizzare di  manutenzione straordinaria  consistenti in realizzazione di pareti in  cartongesso e recinzioni esterne e opere da sanarerelative ai punti B e D  dell'Allegato 1 del verbale n°61/2012 e per costruzione in diversa posizione  dell’autorimessa di pertinenza all’edificio rispetto  all’area di sedime  indicata nelle pratiche edilizie presentate in Comune in un edificio ad uso  residenziale,VIA MARCO EMILIO LEPIDO N.  247 INTERNO 0,2017.0,PDC maggio 2017.xls,"Via Marco Emilio Lepido 247, Bologna",44.5331246,11.2354671
561221,2021,2021-12-14,permesso di costruire a sanatoria con lavori LR 15/2013,Rilasciata,2023-08-10,5680.0,16.0,,VIA FELICE BATTAGLIA N.  16 INTERNO 0,Richiesta di PERMESSO DI COSTRUIRE A SANATORIA CON LAVORI per opere da realizzare di RISTRUTTURAZIONE EDILIZIA consistenti in DEMOLIZIONE E RICOSTRUZIONE DI INTERO EDIFICIO e opere da sanare consistenti in TRASFORMAZIONE DI SA IN SAGOMA IN SU in EDIFICIO ad uso RESIDENZIALE - A1,VIA FELICE BATTAGLIA N.  16 INTERNO 0,2021.0,PdC gennaio - agosto 2023.xls,"Via Felice Battaglia 16, Bologna",44.485084,11.3168166
310282,2020,2020-08-05,permesso di costruire a sanatoria con lavori LR 15/2013 - non residenziale,Rilasciata con prescrizioni,2021-07-13,2900.0,37.0,3,VIA DELL'ARCOVEGGIO N.  37 / 3 INTERNO 0  PIANO t,PERMESSO DI COSTRUIRE SANATORIA – NON RESIDENZIALE per opere da sanare di  ristrutturazione edilizia  consistenti in modifiche muri interni e apertura  lucernario in edificio/unità  ad uso U6 piano T,VIA DELL'ARCOVEGGIO N.  37 / 3 INTERNO 0  PIANO t,2020.0,PDC apr-set 2021.xls,"Via Dell'Arcoveggio 37 / 3, Bologna",44.5191355,11.3433556
673794,2022,2022-10-14,permesso di costruire a sanatoria con lavori LR 15/2013 - non residenziale,Rilasciata con prescrizioni,2023-06-01,23700.0,,,VIA DELLA FOSCHERARA INTERNO 0  (Civico da definire),PERMESSO DI COSTRUIRE SANATORIA CON LAVORI – NON RESIDENZIALE per opere da  realizzare COSTRUZIONE  consistenti in Pista per moto e opere di adeguamento,VIA DELLA FOSCHERARA INTERNO 0  (Civico da definire),2022.0,PdC gennaio - agosto 2023.xls,"Via Della Foscherara (), Bologna",44.4677945,11.3758603
528642,2018,2018-12-19,permesso di costruire a sanatoria LR 15/2013,Rilasciata,2019-09-16,35270.0,2.0,,"VIA DON OLINTO MARELLA N.  2 INTERNO 0  PIANO -1,-2",PERMESSO DI COSTRUIRE A  SANATORIA per opere  realizzate consistenti in  ampliamento fuori sagoma in edificio ad uso residenziale - piano interrato e  seminterrato,VIA DON OLINTO MARELLA N.  2,2018.0,PDC ago+ set 2019_0.xls,"Via Don Olinto Marella 2, Bologna",44.479681,11.3562802
311302,2018,2018-07-20,permesso di costruire a sanatoria LR 15/2013,Rilasciata,2018-12-14,62800.0,7.0,,VIA LIVIO ZAMBECCARI N.  7 INTERNO 0  PIANO INT.,PERMESSO DI COSTRUIRE A  SANATORIA per opere  realizzate di nuova costruzione e  manutenzione straordinaria  consistenti in interventi interni e esterni in  locali accessori ad uso 1a abitativo/residenziale  a piano interrato.,VIA LIVIO ZAMBECCARI N.  7 INTERNO 0  PIANO INT.,2018.0,PDC dicembre 2018.xls,"Via Livio Zambeccari 7 ., Bologna",44.4959147,11.3259708
75250,2020,2020-02-18,permesso di costruire a sanatoria LR 15/2013,Rilasciata,2020-12-10,31900.0,6.0,,VIA S. LIBERATA N.  6 INTERNO 0,"PERMESSO DI COSTRUIRE A  SANATORIA, con accertamento di compatibilità paesaggistica per intervento a sanatoria per lieve ampliamento del piano interrato fuori area di sedime dell'edificio residenziale, oltre a modifiche interne ed esterne, e opere di ripristino per la demolizione di opere interne di adeguamento al piano interrato",VIA S. LIBERATA N.  6 INTERNO 0,2020.0,PDC ago - dic 2020.xls,"Via S. Liberata 6, Bologna",44.4589836,11.3476907
353890,2019,2019-08-02,permesso di costruire a sanatoria LR 15/2013,Diniegata,2020-06-18,30870.0,35.0,,VIA GIUSEPPE ANTONIO LANDI N.  35 INTERNO 0,PERMESSO DI COSTRUIRE - per opere a sanatoria ampliamento di  tettoia esistente e nuova tettoia area privata ad uso U2a  piano terra opere  art.100 fabbricato,VIA GIUSEPPE ANTONIO LANDI N.  35 INTERNO 0,2019.0,PDC rilasciati gennaio-luglio 2020.xls,"Via Giuseppe Antonio Landi 35, Bologna",44.4991571,11.2731329
503416,2018,2018-12-04,permesso di costruire a sanatoria LR 15/2013,Rilasciata,2019-08-06,30350.0,4.0,,VIA DI JOLA N.  4 INTERNO 0  PIANO 0,"PERMESSO DI COSTRUIRE A  SANATORIA per opere realizzate consistenti nell’ampliamento del piano seminterrato sotto l’area disedime ed in piccola parte fuori dall’area di sedime, realizzazione di vano tecnico seminterrato ed altre opere di risanamento conservativo e manutenzione straordinaria nel complesso edilizio",VIA DI JOLA N.  4 INTERNO 0  PIANO 0,2018.0,PDC ago+ set 2019_0.xls,"Via Di Jola 4, Bologna",44.451904,11.3552378
276302,2015,2015-09-10,permesso di costruire a sanatoria LR 15/2013,Rilasciata,2015-12-17,59100.0,12.0,,VIA DEL TREBBO N.  12 INTERNO 0  PIANO s1,PERMESSO DI COSTRUIRE A  SANATORIA ACCERTAMENTO DI CONFORMITA' EDILIZIA  RELATIVA LA SANATORIA DI UN FABBRICATO AD USO CENTRALE TERMICA - AUTORIMESSA  COMPLETAMENTE INTERRATO,VIA DEL TREBBO N.  12 INTERNO 0  PIANO s1,2015.0,PDC dicembre 2015.xls,"Via Del Trebbo 12, Bologna",44.5512025,11.3433612
402358,2015,2015-12-23,permesso di costruire a sanatoria LR 15/2013,Rilasciata,2016-03-02,36650.0,39.0,,VIA ERNESTO MASI N.  39 INTERNO 0,"P.d.C. A  SANATORIA per opere consistenti in ""traslazione dal basso verso  l'alto di tutto il corpo volumetrico dell'organismo edilizio dell'autorimessa,  in parziale difformità dal Permesso di Costruire PG. 26905/2013. Traslazione,  quantificata di cm 10 che ha determinato un aumento di volume fuori terra pari  a circa mc 2,95"", nell'immobile sito in Via E. Masi 39",VIA ERNESTO MASI N.  39 INTERNO 0,2015.0,PDC marzo 2016.xls,"Via Ernesto Masi 39, Bologna",44.4831582,11.3637202
415902,2016,2016-12-14,permesso di costruire a sanatoria LR 15/2013,Rilasciata,2017-02-09,34200.0,17.0,,VIA S.MAMOLO N.  17 INTERNO 0  PIANO S1T12,PERMESSO DI COSTRUIRE A  SANATORIA per opere  realizzate di NUOVA COSTRUZIONE  consistenti in CANTINA INTERRATA PERTINENZIALE CON  VANO SCALA DI ACCESSO DA  CORTE ESCLUSIVA E VOLUME EXTRACORSA ASCENSORE in edificio ad uso 1a -  ABITAZIONE  Piano S1-T-1-2,VIA S.MAMOLO N.  17 INTERNO 0  PIANO S1T12,2016.0,PDC febbraio 2017.xls,"Via S.Mamolo 17, Bologna",44.4858619,11.3387246
234547,2017,2017-06-28,permesso di costruire a sanatoria LR 15/2013,Concluso   Esito positivo,2017-10-02,61360.0,20.0,,VIA DEL VETRAIO N.  20 INTERNO 0,PERMESSO DI COSTRUIRE A  SANATORIA per opere  realizzate di NC per la  realizzazione di due strutture copri-scopri ed altre difformità riconducibili a  MS in edificio  ad uso 2a  piano t-1 interno -,VIA DEL VETRAIO N.  20 INTERNO 0,2017.0,PDC ottobre 2017.xls,"Via Del Vetraio 20, Bologna",44.5046903,11.4218435
302101,2018,2018-07-14,permesso di costruire a sanatoria LR 15/2013,Rilasciata,2018-09-18,34200.0,161.0,2,VIA S.MAMOLO N.  161 / 2 INTERNO 1  PIANO TERRA,"PERMESSO DI COSTRUIRE A  SANATORIA per inclusione nell'appartamento, come  cantine, di volumi interrati fuori sagoma, oltre ad alcuni interventi  esterni come la modifica di un percorso e la recinzione con cancello di un  posto auto. Consistenti in demolizione e ricostruzione di murature non  portanti, la modifica dell'andamento di un percorso pedonale e delimitazione di  un posto auto in unità  ad uso U1a  piano primo interno 1",VIA S.MAMOLO N.  161 / 2 INTERNO 1  PIANO TERRA,2018.0,PDC settembre 2018.xls,"Via S.Mamolo 161 / 2, Bologna",44.4749858,11.3351822
432615,2021,2021-09-29,permesso di costruire a sanatoria LR 15/2013,Rilasciata,2021-11-11,29880.0,1.0,,VIA DELL'IDRAULICO N.  1 INTERNO 0,Permesso di costruire a sanatoria ai sensi dell’art. 17 comma 1 LR 15/2013 per intervento di nuova costruzione per installazione di due container ed ampliamento di una tettoia di collegamento tra due fabbricati in VIA DELL'IDRAULICO N.  1,VIA DELL'IDRAULICO N.  1 INTERNO 0,2021.0,PDC ott-dic 2021.xls,"Via Dell'Idraulico 1, Bologna",44.50151,11.4104211
300166,2015,2015-09-30,permesso di costruire a sanatoria LR 15/2013 - non residenziale,Rilasciata,2016-02-12,60800.0,29.0,3A,VIA XXI APRILE 1945 N.  29 / 3A INTERNO 1,"PERMESSO DI COSTRUIRE A  SANATORIA - NON RESIDENZIALE per opere  realizzate di  AMPLIAMENTO  consistenti in realizzazione di piano interrato in edificio  ad  uso 5C,  piano TERRA E INTERRATO interno 1 - Codice Suap: BTNMGH70E70L418R-0037563-9078256/1",VIA XXI APRILE 1945 N.  29 / 3A INTERNO 1,2015.0,PDC febbraio 2016.xls,"Via Xxi Aprile 1945 29 / 3A, Bologna",44.492042,11.3129285
299862,2016,2016-09-12,permesso di costruire a sanatoria LR 15/2013 - non residenziale,Rilasciata,2017-05-19,59980.0,11.0,,VIA GIUSEPPE VACCARO N.  11 INTERNO 0,"PERMESSO DI COSTRUIRE A  SANATORIA - NON RESIDENZIALE per opere  DI AMPLIAMENTO  IN SANATORIA in edificio ad usi  4c, 4d e 4g. - Codice Suap: BSSNDR65S08A944W-0037575-6605621",VIA GIUSEPPE VACCARO N.  11 INTERNO 0,2016.0,PDC maggio 2017.xls,"Via Giuseppe Vaccaro 11, Bologna",44.5049759,11.2741546
213392,2008,2008-09-09,permesso di costruire in deroga,Rilasciata,2008-12-18,20500.0,158.0,71,VIA S.DONATO N.  158 / 71, Permesso di Costruire per la realizzazione di un ascensore esterno e relativi sbarchi per il superamento barriere architettoniche ,VIA S.DONATO N.  158 / 71,2008.0,PDC dicembre 2008.xls,"Via S.Donato 158 / 71, Bologna",44.5088314,11.3785219
64343,2009,2009-03-18,permesso di costruire in deroga,Rilasciata,2009-10-20,36800.0,9.0,,VIA GIUSEPPE MASSARENTI N.  9," mantenimento ala A, padiglione 5 Nuove Patologie con creazione di collegamento con la nuova ala.",VIA GIUSEPPE MASSARENTI N.  9,2009.0,PDC ottobre 2009.xls,"Via Giuseppe Massarenti 9, Bologna",44.490861,11.3612915
119308,2012,2012-05-17,permesso di costruire in deroga,Rilasciata con prescrizioni,2012-10-15,13730.0,12.0,,VIA DEL CARROZZAIO N.  12,Costruzione di cabina Enel in deroga al comma 1 lett. a art.96 del RUE (interesse pubblico),VIA DEL CARROZZAIO N.  12,2012.0,PDC ottobre 2012.xls,"Via Del Carrozzaio 12, Bologna",44.4977184,11.3992318
211861,2012,2012-09-12,permesso di costruire in deroga,Rilasciata con prescrizioni,2013-02-04,36550.0,13.0,,VIA ALFIERI MASERATI N.  13,Realizzazione di cabina elettrica a servizio dell'impianto fotovoltaico da realizzarsi sulla copertura dell'edificio ad uso industriale con deroga all'art. 96 lett. a  ,VIA ALFIERI MASERATI N.  13,2012.0,PDC febbraio 2013.xls,"Via Alfieri Maserati 13, Bologna",44.514784,11.3628018
26905,2013,2013-02-06,permesso di costruire in deroga,Rilasciata con prescrizioni,2013-03-06,36650.0,39.0,,VIA ERNESTO MASI N.  39,VCO al P.G. 75496/2012 ,VIA ERNESTO MASI N.  39,2013.0,PDC marzo 2013.xls,"Via Ernesto Masi 39, Bologna",44.4831582,11.3637202
387666,2016,2016-11-21,permesso di costruire in deroga LR 15/2013 - non residenziale,Rilasciata con prescrizioni,2017-02-27,40910.0,14.0,,VIA PAOLO NANNI COSTA N.  14 INTERNO 0,"RICHIESTA DI PERMESSO DI COSTRUIRE  IN DEROGA, SECONDO QUANTO PREVISTO  DALL'ART.20 DELLA L.R.15/2013 PER INTERVENTO DI NUOVA COSTRUZIONE DI CENTRO  ""ARTI E SCIENZE"" DI FONDAZIONE GOLINELLI, VIA PAOLO NANNI COSTA 14. - Codice Suap: CCNMRA60M29G273Y-0037577-9145310",VIA PAOLO NANNI COSTA N.  14 INTERNO 0,2016.0,PDC febbraio 2017.xls,"Via Paolo Nanni Costa 14, Bologna",44.5081245,11.3067774
310532,2020,2020-08-05,permesso di costruire LR 15/2013,Rilasciata con prescrizioni,2021-07-19,16750.0,12.0,,VIA CIMABUE N.  12 INTERNO 0,PERMESSO DI COSTRUIRE per opere da realizzare di ristrutturazione edilizia  consistenti in demolizione e ricostruzione fuori sagoma e sedime di edificio ad  uso residenziale,VIA CIMABUE N.  12 INTERNO 0,2020.0,PDC apr-set 2021.xls,"Via Cimabue 12, Bologna",44.5017081,11.3134044
37813,2019,2019-01-24,permesso di costruire LR 15/2013,Rilasciata con prescrizioni,2019-06-21,34000.0,4.0,,VIA INNOCENZO MALVASIA N.  4 INTERNO 0,"PERMESSO DI COSTRUIRE IN VARIANTE ALLA SCIA P.G. 472930/2018 PER NUOVA  COSTRUZIONE PER AMPLIAMENTO DEL 10% AI SENSI DELL’ART. 56 COMMA 3 DEL RUE, USO  ABITATIVO",VIA INNOCENZO MALVASIA N.  4 INTERNO 0,2019.0,PDC giugno 2019_0.xls,"Via Innocenzo Malvasia 4, Bologna",44.5013325,11.3291804
185506,2020,2020-05-13,permesso di costruire LR 15/2013,Rilasciata con prescrizioni,2020-11-13,21350.0,168.0,2,VIA EMILIA LEVANTE N.  168 / 2 INTERNO 0,PERMESSO DI COSTRUIRE per opere da realizzare di adeguamento con  rifunzionalizzazione e recupero del sottotetto dell'edificio di via Emilia  Levante 168/2,VIA EMILIA LEVANTE N.  168 / 2 INTERNO 0,2020.0,PDC ago - dic 2020.xls,"Via Emilia Levante 168 / 2, Bologna",44.4790812,11.3866632
360494,2019,2019-08-07,permesso di costruire LR 15/2013,Rilasciata con prescrizioni,2019-10-25,9800.0,7.0,,VICOLO DEL BOSCO N.  7 INTERNO 0,PERMESSO DI COSTRUIRE VARIANTE IN CORSO D'OPERA A SCIA P.G.17108/2019 per opere  da realizzare di demolizione e fedele ricostruzionedi edificio  ad uso 1a.  Contestuale richiesta di Autorizzazione Paesaggistica.,VICOLO DEL BOSCO N.  7 INTERNO 0,2019.0,PDC da ott a dic 2019.xls,"Vicolo Del Bosco 7, Bologna",44.4563695,11.3659147
404307,2020,2020-10-09,permesso di costruire LR 15/2013,Rilasciata con prescrizioni,2021-08-04,39350.0,68.0,2,VIA MONDO N.  68 / 2 INTERNO 0  PIANO T,PERMESSO DI COSTRUIRE per opere da realizzare di RECUPERO patrimonio edilizio  esistente mediante recupero volume con cambio di destinazione d'uso da  laboratori verso residenziale con incremento volumetrico una tantum livello di  eccellenza art. 56 comma 3 RUE,VIA MONDO N.  68 / 2 INTERNO 0  PIANO T,2020.0,PDC apr-set 2021.xls,"Via Mondo 68 / 2, Bologna",44.4989701,11.3743702
389663,2019,2019-09-04,permesso di costruire LR 15/2013,Rilasciata con prescrizioni,2020-03-06,29250.0,4.0,,VIA ALESSANDRO GUARDASSONI N.  4 INTERNO 0,PERMESSO DI COSTRUIRE per la demolizione di un edificio esistente e nuova  costruzione sito in via Guardassoni 4 con sfruttamento della cubatura esistente,VIA ALESSANDRO GUARDASSONI N.  4 INTERNO 0,2019.0,PDC rilasciati gennaio-luglio 2020.xls,"Via Alessandro Guardassoni 4, Bologna",44.4927113,11.2996121
332793,2019,2019-07-18,permesso di costruire LR 15/2013,Rilasciata con prescrizioni,2020-01-21,7400.0,14.0,,VIA ELIO BERNARDI N.  14 INTERNO 0,PERMESSO DI COSTRUIRE per la demolizione e ricostruzione fuori sagoma con  cambio d'uso per la realizzazione di due edifici residenziali pluripiano  usufruendo dell'ampliamento una tantum del 10% (art.56c.3 RUE),VIA ELIO BERNARDI N.  14 INTERNO 0,2019.0,PDC rilasciati gennaio-luglio 2020.xls,"Via Elio Bernardi 14, Bologna",44.5104447,11.3006484
109553,2018,2018-03-13,permesso di costruire LR 15/2013,Rilasciata,2018-04-23,36050.0,13.0,,VIA PAOLO G. MARTINI N.  13 INTERNO 0,PERMESSO DI COSTRUIRE per opere da realizzare: AUTORIMESSA completamente  INTERRATA in unità immobiliare ad uso residenziale.,VIA PAOLO GIOVANNI MARTINI N.  13 ,2018.0,PDC aprile 2018.xls,"Via Paolo Giovanni Martini 13, Bologna",44.4934841,11.3144892
112953,2020,2020-03-13,permesso di costruire LR 15/2013,Rilasciata con prescrizioni,2021-09-07,10670.0,2.0,,VIA BUON PASTORE N.  2 INTERNO 0,PERMESSO DI COSTRUIRE per opere da realizzare di VcO consistenti in ampliamento  con N.C e opere di M.S. in edificio/unità  ad uso U1  piano …… interno ……,VIA BUON PASTORE N.  2 INTERNO 0,2020.0,PDC apr-set 2021.xls,"Via Buon Pastore 2, Bologna",44.459358,11.3697321
302235,2019,2019-06-30,permesso di costruire LR 15/2013,Rilasciata con prescrizioni,2021-07-27,25450.0,47.0,,VIA GIOVAN BATTISTA GANDINO N.  47 INTERNO 0,"PERMESSO DI COSTRUIRE per opere da realizzare di AMPLIAMENTO E SOPRAELEVAZIONE  di edificio esistente sito in via Gandino 47, con recupero volumetrico e  incremento 20 % vte ai sensi del comma 3 art. 56 del RUE per  Livelli   prestazionali migliorativi:eccellenza",VIA GIOVAN BATTISTA GANDINO N.  47 INTERNO 0,2019.0,PDC apr-set 2021.xls,"Via Giovan Battista Gandino 47, Bologna",44.478985,11.3553874
305654,2020,2020-07-31,permesso di costruire LR 15/2013,Rilasciata con prescrizioni,2021-02-10,250.0,1.0,,VIA DEGLI ACERI N.  1 INTERNO 0  PIANO T,"PERMESSO DI COSTRUIRE PER CAMBIO D'USO DA UN MAGAZZINO (8) A 4 CIVILI ABITAZIONI (1A) MEDIANTE OPERE DI RISTRUTTURAZIONE EDILIZIA CON  SOPRELEVAZIONE ED AMPLIAMENTO, COSTRUZIONE DI FABBRICATI ACCESSORI.",VIA DEGLI ACERI N.  1 INTERNO 0  PIANO T,2020.0,PDC rilasciati gen - mar 2021.xls,"Via Degli Aceri 1, Bologna",44.5300741,11.4008818
305796,2020,2020-07-31,permesso di costruire LR 15/2013,Rilasciata con prescrizioni,2020-12-10,29750.0,24.0,,VIA GIUSEPPE GUIDICINI N.  24 INTERNO 0,PERMESSO DI COSTRUIRE per opere da realizzare di RISTRUTTURAZIONE EDILIZIA E  NUOVA COSTRUZIONE DI SUPERFICIE ACCESSORIA DESTINATA A PARCHEGGI E VANI  ACCESSORI   COMPLETAMENTE INTERRATA NEL LOTTO DI PERTINENZA E SOTTO L'AREA DI SEDIME SU  EDIFICIO DOCUMENTALE AD USO RESIDENZIALE IN VIA G. GUIDICINI 24,VIA GIUSEPPE GUIDICINI N.  24 INTERNO 0,2020.0,PDC ago - dic 2020.xls,"Via Giuseppe Guidicini 24, Bologna",44.4829435,11.3627198
152279,2020,2020-04-16,permesso di costruire LR 15/2013,Rilasciata con prescrizioni,2021-08-05,11220.0,3.0,,VIA CADUTI E DISP. IN GUERRA N.  3 INTERNO 0,PERMESSO DI COSTRUIRE per opere da realizzare di ristrutturazione con  demolizione e ricostruzione per la realizzazione di tre edifici pluripiano e di  opere in cessione come da Vs parere favorevole (PG 318973/2019) in via Caduti e  Dispersi in Guerra 3,VIA CADUTI E DISPERSI IN GUERRA N.  3,2020.0,PDC apr-set 2021.xls,"Via Caduti E Dispersi In Guerra 3, Bologna",44.4771205,11.3949297
516546,2020,2020-12-07,permesso di costruire LR 15/2013,Rilasciata con prescrizioni,2021-09-08,9830.0,2.0,,VIA GIUSEPPE BOSI N.  2,"PERMESSO DI COSTRUIRE per opere da realizzare  di ristrutturazione edilzia con cambio d'uso verso l'abitativo, con contestuale autorizzazione paesaggistica semplifica e parere interno campi elettromagnetici",VIA GIUSEPPE BOSI N.  2,2020.0,PDC apr-set 2021.xls,"Via Giuseppe Bosi 2, Bologna",44.4521892,11.3635384
187218,2019,2019-04-20,permesso di costruire LR 15/2013,Rilasciata con prescrizioni,2019-10-03,5050.0,5.0,2,VIA DEL BARROCCIO N.  5 / 2 INTERNO 0,PERMESSO DI COSTRUIRE RISTRUTTURAZIONE EDILIZIA CON DEMOLIZIONE EDIFICI (capannone e piccola  palazzina) E RICOSTRUZIONE FUORI SAGOMA DI UN EDIFICIO PLURIPIANO AD USO  RESIDENZALE.  Rif. PARERE FAVOREVOLE CQAP P.G. 51922/2019.,VIA DEL BARROCCIO N.  5 / 2 INTERNO 0,2019.0,PDC da ott a dic 2019.xls,"Via Del Barroccio 5 / 2, Bologna",44.4924093,11.385556
428885,2019,2019-09-27,permesso di costruire LR 15/2013,Rilasciata con prescrizioni,2020-04-01,31800.0,3.0,,VIA LETIZIA N.  3 INTERNO 0,"PERMESSO DI COSTRUIRE per intervento di ristrutturazione edilizia di edificio  residenziale esistente con demolizione e ricostruzione su medesimo sedime e  sagoma, nuova costruzione di autorimessa interrata.",VIA LETIZIA N.  3 INTERNO 0,2019.0,PDC rilasciati gennaio-luglio 2020.xls,"Via Letizia 3, Bologna",44.4805537,11.3511737
346949,2019,2019-07-29,permesso di costruire LR 15/2013,Rilasciata con prescrizioni,2021-02-09,38100.0,59.0,,VIA GIUSEPPE MEZZOFANTI N.  59 INTERNO 0,"PERMESSO DI COSTRUIRE per opere da realizzare nell'autorimessa  consistenti  nella realizzazione di una scala interrata e ampliamento del box auto in  edificio/unità  ad uso residenziale, piano interrato",VIA GIUSEPPE MEZZOFANTI N.  59 INTERNO 0,2019.0,PDC rilasciati gen - mar 2021.xls,"Via Giuseppe Mezzofanti 59, Bologna",44.4825224,11.3662378
501498,2020,2020-11-28,permesso di costruire LR 15/2013,Rilasciata con prescrizioni,2021-06-28,13900.0,25.0,,VIA DI CASAGLIA N.  25 INTERNO 0,"permesso di costruire LR 15/2013 per intervento di nuova costruzione (lettera g allegato LR 15/2013) per realizzazione di interrato in parte fuori dall’area di sedime dei tre edifici componenti la corte, oltre al cambio d'uso e demolizione parziale degli edifici ",VIA DI CASAGLIA N.  25 INTERNO 0,2020.0,PDC apr-set 2021.xls,"Via Di Casaglia 25, Bologna",44.485123,11.3111871
194628,2014,2014-07-02,permesso di costruire LR 15/2013,Rilasciata con prescrizioni,2014-11-14,62300.0,16.0,,VIA DEL VIVAIO N.  16,PERMESSO DI COSTRUIRE per opere da realizzare di nuova costruzione consistenti nella realizzazione di pertinenza interrata a servizio di unità immobiliare ad uso residenziale,VIA DEL VIVAIO N.  16,2014.0,PDC novembre 2014.xls,"Via Del Vivaio 16, Bologna",44.5447862,11.2571925
313045,2014,2014-10-31,permesso di costruire LR 15/2013,Rilasciata,2015-10-19,55800.0,5.0,,VIA DELLO SPIRAGLIO N.  5 INTERNO 0,PERMESSO DI COSTRUIRE per opere da realizzare di DEMOLIZIONE DI EDIFICIO  INDUSTRIALE E RICOSTRUZIONE DI EDIFICIO RESIDENZIALE CON UTILIZZO DI BONUS  VOLUMETRICO,VIA DELLO SPIRAGLIO N.  5 INTERNO 0,2014.0,PDC ottobre 2015.xls,"Via Dello Spiraglio 5, Bologna",44.4969449,11.3866776
366477,2014,2014-12-22,permesso di costruire LR 15/2013,Rilasciata con prescrizioni,2015-07-30,45870.0,9.0,,VIA SAN PIER TOMMASO N.  9 INTERNO 0,"RICHIESTA DI PERMESSO DI COSTRUIRE PER INTERVENTO DI DEMOLIZIONE E  RICOSTRUZIONE FUORI SAGOMA DI UN NUOVO EDIFICIO PLURIPIANO in Via San Pier  Tommaso, 9",VIA SAN PIER TOMMASO N.  9 INTERNO 0,2014.0,PDC luglio 2015.xls,"Via San Pier Tommaso 9, Bologna",44.4876078,11.376963
89710,2015,2015-03-31,permesso di costruire LR 15/2013,Rilasciata,2015-07-28,800.0,10.0,,VIA ALAMANDINI N.  10 INTERNO 0,PERMESSO DI COSTRUIRE per realizzazione di nuove autorimesse interrate in via  Alamandini 10,VIA ALAMANDINI N.  10 INTERNO 0,2015.0,PDC luglio 2015.xls,"Via Alamandini 10, Bologna",44.4824216,11.3363499
180519,2015,2015-06-13,permesso di costruire LR 15/2013,Rilasciata con prescrizioni,2015-10-29,18300.0,32.0,,VIA DONATO CRETI N.  32 INTERNO 0,"PERMESSO DI COSTRUIRE per opere da realizzare di Ristrutturazione Edilizia  consistenti in demolizione e ricostruzione fuori sagoma e sedime di volumetrie  esistenti, con incremento volumetrico del 20% in edificio ad uso artigianale  dismesso",VIA DONATO CRETI N.  32 INTERNO 0,2015.0,PDC ottobre 2015.xls,"Via Donato Creti 32, Bologna",44.5102694,11.35469
290758,2015,2015-09-23,permesso di costruire LR 15/2013,Rilasciata,2016-03-18,62200.0,25.0,3,VIA S.VITTORE N.  25 / 3 INTERNO 1,P.d.C.  per opere PROGETTO PER LA DEMOLIZIONE DI UN EDIFICIO  ESISTENTE E NUOVA COSTRUZIONE FUORI SAGOMA SFRUTTANDO LA CUBATURA ESISTENTE IN VIA SAN VITTORE 25/3,VIA S.VITTORE N.  25 / 3 INTERNO 1,2015.0,PDC marzo 2016.xls,"Via S.Vittore 25 / 3, Bologna",44.4699506,11.3398035
9709,2016,2016-01-14,permesso di costruire LR 15/2013,Rilasciata con prescrizioni,2016-07-05,37300.0,,,VIA MAZZINI INTERNO 0  (Civico da definire),"PERMESSO DI COSTRUIRE per opere da realizzare di COSTRUZIONE, PREVIA DEMOLIZIONE, DI UN COMPLESSO RESIDENZIALE IN VIA MAZZINI n°174  consistenti in realizzazione di tre edifici residenziali uso 1a - in variante al P.G. 56721/2010",VIA MAZZINI INTERNO 0  (Civico da definire),2016.0,PDC luglio 2016.xls,"Via Mazzini (), Bologna",44.4848371,11.3712093
80709,2016,2016-03-08,permesso di costruire LR 15/2013,Rilasciata con prescrizioni,2016-07-21,45000.0,3.0,A,VIA GIOV.BATTISTA PERGOLESI N.  3 / A INTERNO -,PERMESSO DI COSTRUIRE per opere da realizzare di demolizione e ricostruzione  con ampliamento in edificio ad uso magazzino da trasformare a residenziale,VIA GIOVANNI BATTISTA PERGOLESI N. 3,2016.0,PDC luglio 2016.xls,"Via Giovanni Battista Pergolesi 3, Bologna",44.4607792,11.3710469
235904,2016,2016-07-08,permesso di costruire LR 15/2013,Rilasciata,2016-11-24,37300.0,,,VIA MAZZINI INTERNO 0  ( Civico da definire ),PERMESSO DI COSTRUIRE per opere da realizzare di nuova costruzione di superficie accessoria fuori terra e ristrutturazione con modifica di sagoma a parità di volume di un edificio esistente ad uso residenziale in via mazzini  76/78,VIA MAZZINI INTERNO 0  ( Civico da definire ),2016.0,PDC novembre 2016.xls,"Via Mazzini ( ), Bologna",44.4848371,11.3712093
76157,2017,2017-02-28,permesso di costruire LR 15/2013,Rilasciata con prescrizioni,2017-12-13,47850.0,3.0,,VICOLO DEI PRATI N.  3 INTERNO 0,PERMESSO DI COSTRUIRE per Demolizione e ricostruzione di edifici residenziali  con bonus volumetrico pari al 20%,VICOLO DEI PRATI N.  3 INTERNO 0,2017.0,PDC dicembre 2017.xls,"Vicolo Dei Prati 3, Bologna",44.4937073,11.4131989
119558,2017,2017-04-03,permesso di costruire LR 15/2013,Rilasciata con prescrizioni,2017-11-02,26050.0,12.0,,VIA VINCENZO GEMITO N.  12 INTERNO 0,"PERMESSO DI COSTRUIRE per opere di Ristrutturazione da attuarsi con Demolizione  e Ricostruzione, Cambio di Destinazione d' Uso verso l' uso ""a1"" ed infine  ampliamento una-tantum.",VIA VINCENZO GEMITO N.  12 INTERNO 0,2017.0,PDC novembre 2017.xls,"Via Vincenzo Gemito 12, Bologna",44.4765935,11.388694
148727,2017,2017-04-28,permesso di costruire LR 15/2013,Rilasciata con prescrizioni,2017-10-25,20680.0,3.0,,VIA PAOLO DORE N.  3 INTERNO 0,"PERMESSO DI COSTRUIRE per la realizzazione di 4 garage interrati in Via Paolo  Dore, 3",VIA PAOLO DORE N.  3 INTERNO 0,2017.0,PDC ottobre 2017.xls,"Via Paolo Dore 3, Bologna",44.4842606,11.3134705
161821,2017,2017-05-09,permesso di costruire LR 15/2013,Rilasciata con prescrizioni,2017-10-12,9300.0,2.0,,VIA FRATELLI BORDONI N.  2 INTERNO 0,PERMESSO DI COSTRUIRE in variante alla SCIA PG N.74022/2017 per la soprelevazione di un edificio residenziale esistente usufruendo degli incentivi per l'ampilamento volumetrico una tantum del 10% (Art. 56 - RUE).,VIA FRATELLI BORDONI N.  2 INTERNO 0,2017.0,PDC ottobre 2017.xls,"Via Fratelli Bordoni 2, Bologna",44.501862,11.311085
214838,2017,2017-06-13,permesso di costruire LR 15/2013,Rilasciata con prescrizioni,2018-05-02,56750.0,26.0,,VIA CLOTILDE TAMBRONI N.  26 INTERNO 0,PERMESSO DI COSTRUIRE per AMPLIAMENTO DI COMPLESSO  EDILIZIO DI PROPRIETA' DI COMUNITA' RELIGIOSA.,VIA CLOTILDE TAMBRONI N.  26 INTERNO 0,2017.0,PDC maggio 2018.xls,"Via Clotilde Tambroni 26, Bologna",44.485216,11.3645919
225631,2017,2017-06-21,permesso di costruire LR 15/2013,Rilasciata con prescrizioni,2018-02-14,21430.0,3.0,,VIA FEDERIGO ENRIQUES N.  3 INTERNO 0,PERMESSO DI COSTRUIRE per opere da realizzare di DEMOLIZIONE E RICOSTRUZIONE  FUORI SAGOMA USUFRUENDO DELL'AMPLIAMENTO UNA TANTUM consistenti NELLA  REALIZZAZIONE DI 13 unità  ad uso ABITATIVO,VIA FEDERIGO ENRIQUES N.  3 INTERNO 0,2017.0,PDC febbraio 2018.xls,"Via Federigo Enriques 3, Bologna",44.4784938,11.3896699
234358,2017,2017-06-28,permesso di costruire LR 15/2013,Rilasciata con prescrizioni,2017-11-23,7350.0,,,VIA DELLA BERLETA INTERNO 0  (Civico da definire)  PIANO T,PERMESSO DI COSTRUIRE PER OPERE DI RISTRUTTURAZIONE EDILIZIA CON DEMOLIZIONE DI  EDIFICI PERTINENZIALI ESISTENTI E RELATIVA RICOSTRUZIONE CON VARIAZIONE DELLA SAGOMA  PLANIVOLUMETRICA E INTERVENTO DI NUOVA COSTRUZIONE PER AMPLIAMENTO VOLUMETRICO DEL 20% NEL RISPETTO DEI REQUISITI DI ECCELLENZA PREVISTI DAL RUE CON CAMBIO D'USO VERSO N. 1 UNITA' IMMOBILIARE ABITATIVA.,VIA DELLA BERLETA INTERNO 0  (Civico da definire)  PIANO T,2017.0,PDC novembre 2017.xls,"Via Della Berleta (), Bologna",44.5200212,11.2956787
269561,2017,2017-07-26,permesso di costruire LR 15/2013,Rilasciata con prescrizioni,2018-02-20,11050.0,28.0,,VIA CADRIANO N.  28 INTERNO 0,PERMESSO DI COSTRUIRE per opere da realizzare di demolizione di edificio ad uso  agricolo e ricostruzione con aumento di volume di edificio ad uso residenziale,VIA CADRIANO N.  28 INTERNO 0,2017.0,PDC febbraio 2018.xls,"Via Cadriano 28, Bologna",44.5233231,11.3799087
389684,2017,2017-10-26,permesso di costruire LR 15/2013,Rilasciata,2018-03-07,58650.0,13.0,,VIA ARTURO TOSCANINI N.  13 INTERNO 0  PIANO t-1,PERMESSO DI COSTRUIRE per opere da realizzare di aumento di superficie  accessoria interrata fuori sagoma consistenti in realizzazione di solaio per  copertura superficie interrata esistente in unità  ad uso 1a  piano T-1,VIA ARTURO TOSCANINI N.  13 INTERNO 0  PIANO t-1,2017.0,PDC marzo 2018.xls,"Via Arturo Toscanini 13 -1, Bologna",44.4774851,11.3330919
391447,2017,2017-10-27,permesso di costruire LR 15/2013,Rilasciata con prescrizioni,2017-12-13,13900.0,59.0,,VIA DI CASAGLIA N.  59 INTERNO 0,PERMESSO DI COSTRUIRE a v.c.o. essenziale (art. 14 bis L.R. 23/2004) alla SCIA PG 306682/2017 per opere da realizzare di nuova costruzione consistenti in realizzazione di una autorimessa pertinenziale interrata,VIA DI CASAGLIA N.  59 INTERNO 0,2017.0,PDC dicembre 2017.xls,"Via Di Casaglia 59, Bologna",44.4636472,11.3009089
396250,2017,2017-11-01,permesso di costruire LR 15/2013,Rilasciata con prescrizioni,2018-03-28,56370.0,68.0,,VIA DEGLI STRADELLI GUELFI N.  68 INTERNO 0,"PERMESSO DI COSTRUIRE per opere di ristrutturazione edilizia  consistenti in  demolizione e ricostruzione con cambio d'uso, frazionamento e riqualificazione  energetica ad  alte prestazioni di edificio ad uso residenziale e pertinenze",VIA DEGLI STRADELLI GUELFI N.  68 INTERNO 0,2017.0,PDC marzo 2018.xls,"Via Degli Stradelli Guelfi 68, Bologna",44.4872068,11.4073241
419676,2017,2017-11-17,permesso di costruire LR 15/2013,Rilasciata con prescrizioni,2018-02-20,42850.0,30.0,,VIA DELL'OSSERVANZA N.  30 INTERNO 0,"PERMESSO DI COSTRUIRE per opere da realizzare di Ristrutturazione Edilizia,  ampliamento autorimessa piano interrato e sistemazione area cortiliva in  edificio ad uso abitativo",VIA DELL'OSSERVANZA N.  30 INTERNO 0,2017.0,PDC febbraio 2018.xls,"Via Dell'Osservanza 30, Bologna",44.4840643,11.3374384
448758,2017,2017-12-11,permesso di costruire LR 15/2013,Rilasciata con prescrizioni,2018-04-17,62690.0,2.0,,VIA GIOVANNA ZACCHERINI ALVISI N.  2 INTERNO -,PERMESSO DI COSTRUIRE per opere di ristrutturazione edilizia con cambio d'uso  al residenziale di un edificio classificato documentale con attuale utilizzo ad  autorimessa previa demolizione e successiva nuova costruzione del volume  esistente previa applicazione dell'art. 100 del RUE.,VIA GIOVANNA ZACCHERINI ALVISI N.  2 ,2017.0,PDC aprile 2018.xls,"Via Giovanna Zaccherini Alvisi 2, Bologna",44.4932845,11.3604574
466217,2017,2017-12-23,permesso di costruire LR 15/2013,Rilasciata con prescrizioni,2018-05-16,35100.0,233.0,,VIA MARCO EMILIO LEPIDO N.  233 INTERNO 0,"PERMESSO DI COSTRUIRE in variante essenziale alla scia con pg 381970 del  20/10/2017, aumento del 20% del volume esistente ai sensi dell'art.56 del rue",VIA MARCO EMILIO LEPIDO N.  233 INTERNO 0,2017.0,PDC maggio 2018.xls,"Via Marco Emilio Lepido 233, Bologna",44.5300193,11.2406211
300183,2020,2020-07-28,permesso di costruire LR 15/2013,Rilasciata con prescrizioni,2020-12-22,24800.0,4.0,,VIA GAIBARA N.  4 INTERNO 0,PERMESSO DI COSTRUIRE per opere da realizzare di Ristrutturazione Edilizia con  accorpamento di volume nella misura del 20% ai fini di realizzare un'abitazione  monofamiliare,VIA GAIBARA N.  4 INTERNO 0,2020.0,PDC ago - dic 2020.xls,"Via Gaibara 4, Bologna",44.4480889,11.3405202
337173,2020,2020-08-31,permesso di costruire LR 15/2013,Rilasciata con prescrizioni,2021-06-16,59350.0,20.0,2,VIA DEL TRIUMVIRATO N.  20 / 2,PERMESSO DI COSTRUIRE per opere da realizzare di Ristrutturazione Edilizia  consistenti in Cambio di Destinazione d'Uso con Opere in edificio ad uso U1,VIA DEL TRIUMVIRATO N.  20 / 2,2020.0,PDC apr-set 2021.xls,"Via Del Triumvirato 20 / 2, Bologna",44.5162876,11.292764
362649,2019,2019-08-08,permesso di costruire LR 15/2013,Rilasciata con prescrizioni,2020-05-15,5500.0,36.0,,VIA LAURA BASSI VERATTI N.  36 INTERNO 1,PERMESSO DI COSTRUIRE per demolizione di fabbricato esistente e ricostruzione  fuori sagoma di edificio residenziale,VIA LAURA BASSI VERATTI N.  36 INTERNO 1,2019.0,PDC rilasciati gennaio-luglio 2020.xls,"Via Laura Bassi Veratti 36, Bologna",44.480877,11.3662929
344394,2018,2018-08-21,permesso di costruire LR 15/2013,Rilasciata con prescrizioni,2019-10-31,10670.0,2.0,,VIA BUON PASTORE N.  2 INTERNO 0,PERMESSO DI COSTRUIRE per opere da realizzare in un edificio residenziale sito  VIA BUON PASTORE 2 consistenti in nuova costruzione GARAGE INTERRATO -  SISTEMAZIONI AREE ESTERNE - MODIFICA RECINZIONI DI CONFINE. VARIANTE  ALL'AUTORIZZAZIONE PAESAGGISTICA PG 7953/2016  E DETERMINA  DIRIGENZIALE PG 299029/2016 - AUTORIZZAZIONE PAESAGGISTICA ALBERATURE PG  43226/2017 - SCIA MINORE PG 47622/2017 - SCIA E AUTORIZZAZIONE PAESAGGISTICA PG  77764/2018 PER RISTRUTTURAZIONE EDILIZIA,VIA BUON PASTORE N.  2 INTERNO 0,2018.0,PDC da ott a dic 2019.xls,"Via Buon Pastore 2, Bologna",44.459358,11.3697321
307253,2018,2018-07-18,permesso di costruire LR 15/2013,Rilasciata con prescrizioni,2018-11-16,44500.0,15.0,2,VIA BARTOLOMEO PASSAROTTI N.  15 / 2 INTERNO 0,"PERMESSO DI COSTRUIRE per la realizzazione di un edificio costituito da n. 13  unità immobiliari a destinazione residenziale con relative autorimesse  interrate e posti auto nella corte, previo demolizione di fabbricati esistenti.",VIA BARTOLOMEO PASSAROTTI N.  15 / 2 INTERNO 0,2018.0,PDC novembre 2018_0.xls,"Via Bartolomeo Passarotti 15 / 2, Bologna",44.5171525,11.3498518
504417,2019,2019-11-13,permesso di costruire LR 15/2013,Rilasciata con prescrizioni,2020-02-18,6700.0,,,VIA BENAZZA INTERNO 0  (Civico da definire),PERMESSO DI COSTRUIRE PER LA REALIZZAZIONE DI UNA MICROAREA FAMILIARE IN VIA  BENAZZA (civico da definire),VIA BENAZZA INTERNO 0  (Civico da definire),2019.0,PDC rilasciati gennaio-luglio 2020.xls,"Via Benazza (), Bologna",44.531802,11.3241882
146917,2021,2021-03-30,permesso di costruire LR 15/2013,Rilasciata con prescrizioni - Annullamento parziale PdC,2021-10-14,13900.0,47.0,,VIA DI CASAGLIA N.  47 INTERNO 0,"Domanda di Permesso di Costruire LR 15/2013 per intervento di nuova costruzione (lettera g allegato LR 15/2013) consistente nella demolizione e ricostruzione nel rispetto di sedime e sagoma di edificio collabente del complesso denominato ""Villa Puglioli, Ex Colonia, parco e pertinenze"" (vincolato ai sensi dell'art. 10 del D.Lgs. 42/04), con modifiche prospettiche e realizzazione di interrato sotto l'area di sedime dell’edificio, per la realizzazione di due unità abitative",VIA DI CASAGLIA N.  47 INTERNO 0,2021.0,PDC ott-dic 2021.xls,"Via Di Casaglia 47, Bologna",44.477642,11.3062721
196300,2022,2022-04-26,permesso di costruire LR 15/2013,Rilasciata con prescrizioni,2023-02-15,56000.0,7.0,,VIA DELLO STALLO N.  7 INTERNO 0,PERMESSO DI COSTRUIRE per opere da realizzare di Demolizione e Nuova  Costruzione di edificio ad uso residenziale A1,VIA DELLO STALLO N.  7 INTERNO 0,2022.0,PdC gennaio - agosto 2023.xls,"Via Dello Stallo 7, Bologna",44.4924162,11.3842476
487084,2022,2022-08-08,permesso di costruire LR 15/2013,Concluso,2023-10-03,8100.0,37.0,,VIA DELLA BEVERARA N.  37 INTERNO 0,"PERMESSO DI COSTRUIRE per opere da realizzare di intervento di Qualificazione  edilizia ""trasformativa"" con demolizione di fabbricato esistente ad uso  produttivo e nuova costruzione di edificio ad uso residenziale.",VIA DELLA BEVERARA N.  37 INTERNO 0,2022.0,PDC set-dic 2023.xls,"Via Della Beverara 37, Bologna",44.5134347,11.3316231
810084,2022,2022-12-02,permesso di costruire LR 15/2013,Rilasciata con prescrizioni,2023-11-24,31300.0,25.0,,VIA ERCOLE LELLI N.  25 INTERNO 0,PERMESSO DI COSTRUIRE per opere da realizzare di RISTRUTTURAZIONE EDILIZIA PER  DEMOLIZIONE E NUOVA COSTRUZIONE DI IMMOBILE AD USO RESIDENZIALE CON CAMBIO  D'USO E REALIZZAZIONE DI NUOVE U.I.,VIA ERCOLE LELLI N.  25 INTERNO 0,2022.0,PDC set-dic 2023.xls,"Via Ercole Lelli 25, Bologna",44.4707329,11.3683765
279394,2019,2019-06-14,permesso di costruire LR 15/2013 - non residenziale,Rilasciata con prescrizioni,2019-10-08,45700.0,55.0,,VIA PIAVE N.  55 INTERNO 0,"PERMESSO DI COSTRUIRE - NON RESIDENZIALE per intervento di nuova costruzione per ampliamento ai sensi dell'art. 45 del RUE, di edificio ad uso socio-sanitario (7b)",VIA PIAVE N.  55 INTERNO 0,2019.0,PDC da ott a dic 2019.xls,"Via Piave 55, Bologna",44.4987191,11.3139616
238722,2019,2019-05-23,permesso di costruire LR 15/2013 - non residenziale,Rilasciata con prescrizioni,2021-09-23,39700.0,42.0,,VIA MONTELLO N.  42 INTERNO 0,"PERMESSO DI COSTRUIRE - NON RESIDENZIALE per opere da realizzare di ampliamento  di edificio scolastico esistente, uso 7a scuola secondaria di primo grado",VIA MONTELLO N.  42 INTERNO 0,2019.0,PDC apr-set 2021.xls,"Via Montello 42, Bologna",44.4974338,11.3214819
226959,2018,2018-05-30,permesso di costruire LR 15/2013 - non residenziale,Rilasciata con prescrizioni,2018-10-02,29880.0,8.0,,VIA DELL'IDRAULICO N.  8 INTERNO 0,"PERMESSO DI COSTRUIRE - NON RESIDENZIALE in variante in corso d'opera alla SCIA P.G. 176547/2018 per ampliamento del capannone industriale ad uso commercio all'ingrosso (2b), oltre alla realizzazione di modifche prospettiche, opere interne e sistemazione dell'area cortiliva pertinenziale ",VIA DELL'IDRAULICO N.  8 INTERNO 0,2018.0,PDC ottobre 2018.xls,"Via Dell'Idraulico 8, Bologna",44.5015881,11.4083634
458594,2020,2020-11-09,permesso di costruire LR 15/2013 - non residenziale,Rilasciata,2021-02-10,30850.0,38.0,3,VIA LARGA N.  38 / 3 INTERNO 3,"PERMESSO DI COSTRUIRE - NON RESIDENZIALE per opere da realizzare di manutenzione straordinaria consistenti in diversa distribuzione dei locali interni per insediamento di agenzia scommesse e sala slot VLT in unità immobiliare ad uso commerciale.
",VIA LARGA N.  38 / 3 INTERNO 3 ,2020.0,PDC apr-set 2021.xls,"Via Larga 38 / 3, Bologna",44.5037445,11.3962911
343163,2019,2019-07-26,permesso di costruire LR 15/2013 - non residenziale,Rilasciata con prescrizioni,2020-06-30,58600.0,148.0,,VIA TOSCANA N.  148 INTERNO 0  PIANO t-1,"PERMESSO DI COSTRUIRE - NON RESIDENZIALE per opere da realizzare di nuova  costruzione consistenti in variazione essenziale alla S.C.I.A. P.G.  252193/2019, in edificio scolastico (7a) - Istituto Farlottine -  piano T, 1, 2",VIA TOSCANA N.  148 INTERNO 0  PIANO t-1,2019.0,PDC rilasciati gennaio-luglio 2020.xls,"Via Toscana 148 -1, Bologna",44.4568426,11.369689
183506,2020,2020-05-12,permesso di costruire LR 15/2013 - non residenziale,Rilasciata,2020-09-16,52950.0,236.0,,VIA SARAGOZZA N.  236 INTERNO 0,"PERMESSO DI COSTRUIRE - NON RESIDENZIALE per opere da realizzare di  demolizione, ristrutturazione, nuova costruzione, riqualificazione ambientale  nell'area ad uso U 7a",VIA SARAGOZZA N.  236 INTERNO 0,2020.0,PDC ago - dic 2020.xls,"Via Saragozza 236, Bologna",44.4894651,11.3121964
473699,2020,2020-11-16,permesso di costruire LR 15/2013 - non residenziale,Rilasciata con prescrizioni,2021-07-27,19450.0,45.0,2,VIA DECUMANA N.  45 / 2 INTERNO -,PERMESSO DI COSTRUIRE PER REALIZZAZIONE DI NUOVA AREA COMMERCIALE COMPRENDENTE  UNA STRUTTURA DI MEDIA VENDITA ALIMENTARE AL DETTAGLIO E UN ENTE DI  VOLONTARIATO E FORMAZIONE ONLUS (OPIMM),VIA DECUMANA N.  45 ,2020.0,PDC apr-set 2021.xls,"Via Decumana 45, Bologna",44.5075164,11.2996642
55114,2020,2020-02-05,permesso di costruire LR 15/2013 - non residenziale,Rilasciata con prescrizioni,2021-03-29,63100.0,56.0,,VIA FRANCESCO ZANARDI N.  56 INTERNO /,PERMESSO DI COSTRUIRE - NON RESIDENZIALE per opere da realizzare di Ristrutturazione edilizia consistenti in demolizione totale dei fabbricati esistenti per la realizzazione di fabbricato commerciale destinato alla media struttura di vendita,VIA FRANCESCO ZANARDI N.  56,2020.0,PDC apr-set 2021.xls,"Via Francesco Zanardi 56, Bologna",44.5147225,11.3255905
286351,2020,2020-07-17,permesso di costruire LR 15/2013 - non residenziale,Rilasciata con prescrizioni,2021-07-30,27030.0,5.0,,VIA DEI GIARDINI N.  5 INTERNO 0,"PERMESSO DI COSTRUIRE - NON RESIDENZIALE per la demolizione edifici esistenti  sui lotti di proprietò e la realizzazione di un edificio media struttura di  vendita commerciale alimentare, parcheggio pertinenziale, parcheggio pubblico  (dotazione) e di tutti i sottoservizi annessi",VIA DEI GIARDINI N.  5 INTERNO 0,2020.0,PDC apr-set 2021.xls,"Via Dei Giardini 5, Bologna",44.5380658,11.3552854
58676,2019,2019-02-05,permesso di costruire LR 15/2013 - non residenziale,Rilasciata con prescrizioni,2020-11-18,30850.0,35.0,2,VIA LARGA N.  35 / 2 INTERNO 0,PERMESSO DI COSTRUIRE - NON RESIDENZIALE per INTERVENTO DI RISTRUTTURAZIONE  EDILIZIA CON DEMOLIZIONE E RICOSTRUZIONE DI EDIFICIO AD USO COMMERCIALE,VIA LARGA N.  35 / 2 INTERNO 0,2019.0,PDC ago - dic 2020.xls,"Via Larga 35 / 2, Bologna",44.5031073,11.3977554
417781,2020,2020-10-16,permesso di costruire LR 15/2013 - non residenziale,Rilasciata,2021-03-09,55950.0,71.0,8,VIA STALINGRADO N.  71 / 8 INTERNO 0,PERMESSO DI COSTRUIRE - NON RESIDENZIALE per opere da realizzare di AMPLIAMENTO UNA TANTUM FINO AL 10% DEL VTE (art.63 vigente RUE) DI EDIFICI PER SERVIZI COMMERCIALI (4) SITI IN VIA STALINGRADO 71,VIA STALINGRADO N.  71 / 8 INTERNO 0 ,2020.0,PDC apr-set 2021.xls,"Via Stalingrado 71 / 8, Bologna",44.5187445,11.3627024
11674,2020,2020-01-10,permesso di costruire LR 15/2013 - non residenziale,Comunicazione di irricevibilità da SUAP,2020-01-20,61330.0,5.0,,VIA DEI VESTIARI N.  5 INTERNO 0,PERMESSO DI COSTRUIRE - NON RESIDENZIALE per opere da realizzare di MODIFICHE  INTERNE E MANUTENZIONE STRAORDINARIA  consistenti in DEMOLIZIONE DI ALCUNE  PARETI INTERNE E CHIUSURA FORI in  edificio/unità  ad uso MAGAZZINO,VIA DEI VESTIARI N.  5 INTERNO 0,2020.0,PDC rilasciati gennaio-luglio 2020.xls,"Via Dei Vestiari 5, Bologna",44.5328389,11.3466654
261283,2019,2019-06-05,permesso di costruire LR 15/2013 - non residenziale,Rilasciata,2020-01-15,57980.0,9.0,,VIALE PALMIRO TOGLIATTI N.  9 INTERNO C-D,PERMESSO DI COSTRUIRE - NON RESIDENZIALE per opere da realizzare di cambio  d'uso con opere da 4D a 6,VIALE PALMIRO TOGLIATTI N.  9 INTERNO C-D,2019.0,PDC rilasciati gennaio-luglio 2020.xls,"Viale Palmiro Togliatti 9 -D, Bologna",44.5080415,11.2816995
447776,2018,2018-10-30,permesso di costruire LR 15/2013 - non residenziale,Rilasciata,2018-12-27,17680.0,1.0,,VIA DEL CONCIATORE N.  1 INTERNO 0,PERMESSO DI COSTRUIRE - NON RESIDENZIALE  - Variante essenziale al PdC 162922/2014 per la differente realizzazione di n.2 nuovi edifici (depositi) nella sede dello zincaturificio bolognese (uso 2a) e la mancata realizzazione di una tettoia.,VIA DEL CONCIATORE N.  1 INTERNO 0,2018.0,PDC gennaio 2019.xls,"Via Del Conciatore 1, Bologna",44.4992297,11.4003455
